[{"results":[{"address_components":[{"long_name":"Earth Infrastructures Limited | Earth Gracia","short_name":"Earth Infrastructures Limited | Earth Gracia","types":["point_of_interest","establishment"]},{"long_name":"Bisrakh","short_name":"Bisrakh","types":["sublocality_level_1","sublocality","political"]},{"long_name":"Gautam Buddh Nagar","short_name":"Gautam Buddh Nagar","types":["locality","political"]},{"long_name":"Gautam Buddh Nagar","short_name":"Gautam Buddh Nagar","types":["administrative_area_level_2","political"]},{"long_name":"Uttar Pradesh","short_name":"UP","types":["administrative_area_level_1","political"]},{"long_name":"Индия","short_name":"IN","types":["country","political"]},{"long_name":"201009","short_name":"201009","types":["postal_code"]}],"formatted_address":"Earth Infrastructures Limited | Earth Gracia, Bisrakh, Gautam Buddh Nagar, Uttar Pradesh 201009, Индия","geometry":{"location":{"lat":28.575095,"lng":77.429441},"location_type":"APPROXIMATE","viewport":{"northeast":{"lat":28.5764439802915,"lng":77.43078998029151},"southwest":{"lat":28.57374601970849,"lng":77.42809201970848}}},"partial_match":true,"place_id":"ChIJuQEAAMXuDDkR5KwnpE0Jx6s","types":["general_contractor","real_estate_agency","point_of_interest","establishment"]}],"status":"OK"},{"results":[{"address_components":[{"long_name":"Мельбурн","short_name":"Мельбурн","types":["colloquial_area","locality","political"]},{"long_name":"Виктория","short_name":"VIC","types":["administrative_area_level_1","political"]},{"long_name":"Австралия","short_name":"AU","types":["country","political"]}],"formatted_address":"Мельбурн Виктория, Австралия","geometry":{"bounds":{"northeast":{"lat":-37.4598457,"lng":145.76474},"southwest":{"lat":-38.2607199,"lng":144.3944921}},"location":{"lat":-37.814107,"lng":144.96328},"location_type":"APPROXIMATE","viewport":{"northeast":{"lat":-37.4598457,"lng":145.76474},"southwest":{"lat":-38.2607199,"lng":144.3944921}}},"place_id":"ChIJ90260rVG1moRkM2MIXVWBAQ","types":["colloquial_area","locality","political"]},{"address_components":[{"long_name":"Мельбурн","short_name":"Мельбурн","types":["locality","political"]},{"long_name":"Виктория","short_name":"VIC","types":["administrative_area_level_1","political"]},{"long_name":"Австралия","short_name":"AU","types":["country","political"]}],"formatted_address":"Мельбурн Виктория, Австралия","geometry":{"bounds":{"northeast":{"lat":-37.7994893,"lng":144.9890618},"southwest":{"lat":-37.8546255,"lng":144.9514222}},"location":{"lat":-37.8142155,"lng":144.9632307},"location_type":"APPROXIMATE","viewport":{"northeast":{"lat":-37.7994893,"lng":144.9890618},"southwest":{"lat":-37.8546255,"lng":144.9514222}}},"place_id":"ChIJgf0RD69C1moR4OeMIXVWBAU","types":["locality","political"]},{"address_components":[{"long_name":"Мельбурн аэропорту","short_name":"Мельбурн аэропорту","types":["point_of_interest","establishment"]},{"long_name":"Departure Dr","short_name":"Departure Dr","types":["route"]},{"long_name":"Melbourne Airport","short_name":"Melbourne Airport","types":["locality","political"]},{"long_name":"Victoria","short_name":"VIC","types":["administrative_area_level_1","political"]},{"long_name":"Австралия","short_name":"AU","types":["country","political"]},{"long_name":"3045","short_name":"3045","types":["postal_code"]}],"formatted_address":"Мельбурн аэропорту (MEL), Departure Dr, Melbourne Airport VIC 3045, Австралия","geometry":{"location":{"lat":-37.6690123,"lng":144.8410273},"location_type":"APPROXIMATE","viewport":{"northeast":{"lat":-37.6676633197085,"lng":144.8423762802915},"southwest":{"lat":-37.67036128029149,"lng":144.8396783197085}}},"place_id":"ChIJFzmq66lZ1moRkPAvBXZWBA8","types":["airport","point_of_interest","establishment"]}],"status":"OK"},{"results":[{"address_components":[{"long_name":"Баден","short_name":"Баден","types":["locality","political"]},{"long_name":"Баден","short_name":"Баден","types":["administrative_area_level_3","political"]},{"long_name":"Баден","short_name":"Баден","types":["administrative_area_level_2","political"]},{"long_name":"Нижняя Австрия","short_name":"Ниж. Австрия","types":["administrative_area_level_1","political"]},{"long_name":"Австрия","short_name":"AT","types":["country","political"]}],"formatted_address":"Баден, Австрия","geometry":{"bounds":{"northeast":{"lat":48.0245101,"lng":16.3025999},"southwest":{"lat":47.96400999999999,"lng":16.1720699}},"location":{"lat":48.00214,"lng":16.23091},"location_type":"APPROXIMATE","viewport":{"northeast":{"lat":48.0245101,"lng":16.3025999},"southwest":{"lat":47.96400999999999,"lng":16.1720699}}},"place_id":"ChIJu2wdYYCwbUcRWrT9Xz_ONm8","types":["locality","political"]}],"status":"OK"},{"results":[{"address_components":[{"long_name":"Вена","short_name":"Вена","types":["locality","political"]},{"long_name":"Вена","short_name":"Вена","types":["administrative_area_level_1","political"]},{"long_name":"Австрия","short_name":"AT","types":["country","political"]}],"formatted_address":"Вена, Австрия","geometry":{"bounds":{"northeast":{"lat":48.3230999,"lng":16.5774999},"southwest":{"lat":48.1182699,"lng":16.1826199}},"location":{"lat":48.2081743,"lng":16.3738189},"location_type":"APPROXIMATE","viewport":{"northeast":{"lat":48.3230999,"lng":16.5774999},"southwest":{"lat":48.1182699,"lng":16.1826199}}},"place_id":"ChIJn8o2UZ4HbUcRRluiUYrlwv0","types":["locality","political"]}],"status":"OK"},{"results":[{"address_components":[{"long_name":"Зальцбург","short_name":"Зальцбург","types":["locality","political"]},{"long_name":"Зальцбург","short_name":"Зальцбург","types":["administrative_area_level_2","political"]},{"long_name":"Зальцбург","short_name":"Зальцбург","types":["administrative_area_level_1","political"]},{"long_name":"Австрия","short_name":"AT","types":["country","political"]}],"formatted_address":"Зальцбург, Австрия","geometry":{"bounds":{"northeast":{"lat":47.85431,"lng":13.1268799},"southwest":{"lat":47.75131,"lng":12.9859801}},"location":{"lat":47.80949,"lng":13.05501},"location_type":"APPROXIMATE","viewport":{"northeast":{"lat":47.85431,"lng":13.1268799},"southwest":{"lat":47.75131,"lng":12.9859801}}},"place_id":"ChIJsdQIqd2adkcRPfcqQaGD4cE","types":["locality","political"]}],"status":"OK"},{"results":[{"address_components":[{"long_name":"Кремс-на-Дунае","short_name":"Кремс-на-Дунае","types":["locality","political"]},{"long_name":"Кремс-на-Дунае","short_name":"Кремс-на-Дунае","types":["administrative_area_level_2","political"]},{"long_name":"Нижняя Австрия","short_name":"Ниж. Австрия","types":["administrative_area_level_1","political"]},{"long_name":"Австрия","short_name":"AT","types":["country","political"]}],"formatted_address":"Кремс-на-Дунае, Австрия","geometry":{"bounds":{"northeast":{"lat":48.4508901,"lng":15.72859},"southwest":{"lat":48.36816,"lng":15.52543}},"location":{"lat":48.40999,"lng":15.60384},"location_type":"APPROXIMATE","viewport":{"northeast":{"lat":48.4508901,"lng":15.72859},"southwest":{"lat":48.36816,"lng":15.52543}}},"place_id":"ChIJewh4XHmEckcRHAO4vHSrsAE","types":["locality","political"]}],"status":"OK"},{"results":[{"address_components":[{"long_name":"Ордино","short_name":"Ордино","types":["administrative_area_level_1","political"]},{"long_name":"Андорра","short_name":"AD","types":["country","political"]},{"long_name":"AD300","short_name":"AD300","types":["postal_code"]}],"formatted_address":"Ордино, AD300, Андорра","geometry":{"bounds":{"northeast":{"lat":42.6558649,"lng":1.6072404},"southwest":{"lat":42.54584879999999,"lng":1.4680844}},"location":{"lat":42.5994433,"lng":1.5402327},"location_type":"APPROXIMATE","viewport":{"northeast":{"lat":42.6558649,"lng":1.6072404},"southwest":{"lat":42.54584879999999,"lng":1.4680844}}},"place_id":"ChIJMQoHTz5grxIRCdOGHvriZNY","types":["administrative_area_level_1","political"]}],"status":"OK"},{"results":[{"address_components":[{"long_name":"Barrio Cerrado El Lucero","short_name":"Barrio Cerrado El Lucero","types":["point_of_interest","establishment"]},{"long_name":"4301","short_name":"4301","types":["street_number"]},{"long_name":"Avenida Patricias Argentinas","short_name":"Av. Patricias Argentinas","types":["route"]},{"long_name":"Garín","short_name":"Garín","types":["locality","political"]},{"long_name":"Buenos Aires","short_name":"Buenos Aires","types":["administrative_area_level_1","political"]},{"long_name":"Аргентина","short_name":"AR","types":["country","political"]}],"formatted_address":"Barrio Cerrado El Lucero, Av. Patricias Argentinas 4301, Garín, Buenos Aires, Аргентина","geometry":{"location":{"lat":-34.4222288,"lng":-58.7638986},"location_type":"APPROXIMATE","viewport":{"northeast":{"lat":-34.4208798197085,"lng":-58.76254961970849},"southwest":{"lat":-34.4235777802915,"lng":-58.76524758029151}}},"partial_match":true,"place_id":"ChIJg927cBSfvJURsvS0Yh4ubN0","types":["park","point_of_interest","establishment"]}],"status":"OK"},{"results":[{"address_components":[{"long_name":"Calle Argentina","short_name":"Calle Argentina","types":["route"]},{"long_name":"Ciudad Victoria","short_name":"Cd Victoria","types":["locality","political"]},{"long_name":"Tamaulipas","short_name":"Tamps.","types":["administrative_area_level_1","political"]},{"long_name":"Мексика","short_name":"MX","types":["country","political"]},{"long_name":"87019","short_name":"87019","types":["postal_code"]}],"formatted_address":"Calle Argentina, 87019 Cd Victoria, Tamps., Мексика","geometry":{"bounds":{"northeast":{"lat":23.7725829,"lng":-99.1618094},"southwest":{"lat":23.7711908,"lng":-99.1739916}},"location":{"lat":23.7717591,"lng":-99.1678182},"location_type":"GEOMETRIC_CENTER","viewport":{"northeast":{"lat":23.7732358302915,"lng":-99.1618094},"southwest":{"lat":23.7705378697085,"lng":-99.1739916}}},"partial_match":true,"place_id":"ChIJ0SLmJl5TeYYRyiH2HmH47zE","types":["route"]}],"status":"OK"},{"results":[{"address_components":[{"long_name":"Армстронг","short_name":"Армстронг","types":["locality","political"]},{"long_name":"Бельграно","short_name":"Бельграно","types":["administrative_area_level_2","political"]},{"long_name":"Санта-Фе","short_name":"Санта-Фе","types":["administrative_area_level_1","political"]},{"long_name":"Аргентина","short_name":"AR","types":["country","political"]}],"formatted_address":"Армстронг, Санта-Фе, Аргентина","geometry":{"location":{"lat":-32.785429,"lng":-61.6034335},"location_type":"APPROXIMATE","viewport":{"northeast":{"lat":-32.7760479,"lng":-61.58742609999999},"southwest":{"lat":-32.7948091,"lng":-61.6194409}}},"partial_match":true,"place_id":"ChIJrWhYamPpyZURJ3LljJtFZCE","types":["locality","political"]}],"status":"OK"},{"results":[{"address_components":[{"long_name":"Берасатеги","short_name":"Берасатеги","types":["locality","political"]},{"long_name":"Берасатеги","short_name":"Берасатеги","types":["administrative_area_level_2","political"]},{"long_name":"Буэнос-Айрес","short_name":"Буэнос-Айрес","types":["administrative_area_level_1","political"]},{"long_name":"Аргентина","short_name":"AR","types":["country","political"]}],"formatted_address":"Берасатеги, Буэнос-Айрес, Аргентина","geometry":{"bounds":{"northeast":{"lat":-34.7358692,"lng":-58.15754159999999},"southwest":{"lat":-34.7898778,"lng":-58.23937609999999}},"location":{"lat":-34.762001,"lng":-58.2112961},"location_type":"APPROXIMATE","viewport":{"northeast":{"lat":-34.7358692,"lng":-58.15754159999999},"southwest":{"lat":-34.7898778,"lng":-58.23937609999999}}},"place_id":"ChIJv70vjDQvo5URBz-TdtJ7IYA","types":["locality","political"]}],"status":"OK"},{"results":[{"address_components":[{"long_name":"Буэнос-Айрес","short_name":"CABA","types":["locality","political"]},{"long_name":"Автономный город Буэнос-Айрес","short_name":"CABA","types":["administrative_area_level_1","political"]},{"long_name":"Аргентина","short_name":"AR","types":["country","political"]}],"formatted_address":"Буэнос-Айрес, Автономный город Буэнос-Айрес, Аргентина","geometry":{"bounds":{"northeast":{"lat":-34.5265464,"lng":-58.33518840000001},"southwest":{"lat":-34.7051011,"lng":-58.5314522}},"location":{"lat":-34.6036844,"lng":-58.3815591},"location_type":"APPROXIMATE","viewport":{"northeast":{"lat":-34.5265464,"lng":-58.33518840000001},"southwest":{"lat":-34.7051011,"lng":-58.5314522}}},"place_id":"ChIJvQz5TjvKvJURh47oiC6Bs6A","types":["locality","political"]}],"status":"OK"},{"results":[{"address_components":[{"long_name":"Буэнос-Айрес","short_name":"CABA","types":["locality","political"]},{"long_name":"Автономный город Буэнос-Айрес","short_name":"CABA","types":["administrative_area_level_1","political"]},{"long_name":"Аргентина","short_name":"AR","types":["country","political"]}],"formatted_address":"Буэнос-Айрес, Автономный город Буэнос-Айрес, Аргентина","geometry":{"bounds":{"northeast":{"lat":-34.5265464,"lng":-58.33518840000001},"southwest":{"lat":-34.7051011,"lng":-58.5314522}},"location":{"lat":-34.6036844,"lng":-58.3815591},"location_type":"APPROXIMATE","viewport":{"northeast":{"lat":-34.5265464,"lng":-58.33518840000001},"southwest":{"lat":-34.7051011,"lng":-58.5314522}}},"place_id":"ChIJvQz5TjvKvJURh47oiC6Bs6A","types":["locality","political"]}],"status":"OK"},{"results":[{"address_components":[{"long_name":"Комодоро-Ривадавия","short_name":"Комодоро-Ривадавия","types":["locality","political"]},{"long_name":"Эскаланте","short_name":"Эскаланте","types":["administrative_area_level_2","political"]},{"long_name":"Чубут","short_name":"Чубут","types":["administrative_area_level_1","political"]},{"long_name":"Аргентина","short_name":"AR","types":["country","political"]}],"formatted_address":"Комодоро-Ривадавия, Чубут, Аргентина","geometry":{"bounds":{"northeast":{"lat":-45.7690284,"lng":-67.40387799999999},"southwest":{"lat":-45.90921960000001,"lng":-67.5986509}},"location":{"lat":-45.8656149,"lng":-67.4822429},"location_type":"APPROXIMATE","viewport":{"northeast":{"lat":-45.7690284,"lng":-67.40387799999999},"southwest":{"lat":-45.90921960000001,"lng":-67.5986509}}},"place_id":"ChIJ9SRI4E1U5L0RS-64O45_n10","types":["locality","political"]}],"status":"OK"},{"results":[{"address_components":[{"long_name":"Лобос","short_name":"Лобос","types":["locality","political"]},{"long_name":"Лобос","short_name":"Лобос","types":["administrative_area_level_2","political"]},{"long_name":"Буэнос-Айрес","short_name":"Буэнос-Айрес","types":["administrative_area_level_1","political"]},{"long_name":"Аргентина","short_name":"AR","types":["country","political"]}],"formatted_address":"Лобос, Буэнос-Айрес, Аргентина","geometry":{"bounds":{"northeast":{"lat":-35.1415633,"lng":-59.0610771},"southwest":{"lat":-35.2292251,"lng":-59.1524124}},"location":{"lat":-35.1853611,"lng":-59.0975278},"location_type":"APPROXIMATE","viewport":{"northeast":{"lat":-35.1415633,"lng":-59.0610771},"southwest":{"lat":-35.2292251,"lng":-59.1524124}}},"place_id":"ChIJ0wh1ZawAvZUR1NEAhIOZ6Iw","types":["locality","political"]}],"status":"OK"},{"results":[{"address_components":[{"long_name":"Мар-дель-Плата","short_name":"Мар-дель-Плата","types":["locality","political"]},{"long_name":"Хенераль Пуэйрредон","short_name":"Хенераль Пуэйрредон","types":["administrative_area_level_2","political"]},{"long_name":"Буэнос-Айрес","short_name":"Буэнос-Айрес","types":["administrative_area_level_1","political"]},{"long_name":"Аргентина","short_name":"AR","types":["country","political"]}],"formatted_address":"Мар-дель-Плата, Буэнос-Айрес, Аргентина","geometry":{"bounds":{"northeast":{"lat":-37.908783,"lng":-57.51795199999999},"southwest":{"lat":-38.1263503,"lng":-57.68311610000001}},"location":{"lat":-38.0054771,"lng":-57.5426106},"location_type":"APPROXIMATE","viewport":{"northeast":{"lat":-37.908783,"lng":-57.51795199999999},"southwest":{"lat":-38.1263503,"lng":-57.68311610000001}}},"place_id":"ChIJCULTGU3ZhJURJtH-S4Bwlt0","types":["locality","political"]}],"status":"OK"},{"results":[{"address_components":[{"long_name":"Росарио","short_name":"Росарио","types":["locality","political"]},{"long_name":"Росарио","short_name":"Росарио","types":["administrative_area_level_2","political"]},{"long_name":"Санта-Фе","short_name":"Санта-Фе","types":["administrative_area_level_1","political"]},{"long_name":"Аргентина","short_name":"AR","types":["country","political"]}],"formatted_address":"Росарио, Санта-Фе, Аргентина","geometry":{"bounds":{"northeast":{"lat":-32.8704196,"lng":-60.61438270000001},"southwest":{"lat":-33.0341873,"lng":-60.7819327}},"location":{"lat":-32.9442426,"lng":-60.65053880000001},"location_type":"APPROXIMATE","viewport":{"northeast":{"lat":-32.8704196,"lng":-60.61438270000001},"southwest":{"lat":-33.0341873,"lng":-60.7819327}}},"place_id":"ChIJW9fXNZNTtpURV6VYAumGQOw","types":["locality","political"]}],"status":"OK"},{"results":[{"address_components":[{"long_name":"Ереван","short_name":"Ереван","types":["locality","political"]},{"long_name":"Ереван","short_name":"Ереван","types":["administrative_area_level_1","political"]},{"long_name":"Армения","short_name":"AM","types":["country","political"]}],"formatted_address":"Ереван, Армения","geometry":{"bounds":{"northeast":{"lat":40.2426667,"lng":44.6150493},"southwest":{"lat":40.0641141,"lng":44.3620849}},"location":{"lat":40.1791857,"lng":44.4991029},"location_type":"APPROXIMATE","viewport":{"northeast":{"lat":40.2426667,"lng":44.6150493},"southwest":{"lat":40.0641141,"lng":44.3620849}}},"place_id":"ChIJW4v8uNqiakARalLah655FD0","types":["locality","political"]}],"status":"OK"},{"results":[{"address_components":[{"long_name":"Антоново","short_name":"Антоново","types":["locality","political"]},{"long_name":"Пуховичский район","short_name":"Пуховичский район","types":["administrative_area_level_2","political"]},{"long_name":"Минская область","short_name":"Минская область","types":["administrative_area_level_1","political"]},{"long_name":"Беларусь","short_name":"BY","types":["country","political"]}],"formatted_address":"Антоново, Беларусь","geometry":{"bounds":{"northeast":{"lat":53.54219459999999,"lng":28.0442333},"southwest":{"lat":53.5364308,"lng":28.0329036}},"location":{"lat":53.539111,"lng":28.0372204},"location_type":"APPROXIMATE","viewport":{"northeast":{"lat":53.54219459999999,"lng":28.0442333},"southwest":{"lat":53.5364308,"lng":28.0329036}}},"partial_match":true,"place_id":"ChIJcT0g6--K2UYRcux0kjpuoII","types":["locality","political"]}],"status":"OK"},{"results":[{"address_components":[{"long_name":"Барановичи","short_name":"Барановичи","types":["locality","political"]},{"long_name":"Барановичский район","short_name":"Барановичский район","types":["administrative_area_level_2","political"]},{"long_name":"Брестская область","short_name":"Брестская область","types":["administrative_area_level_1","political"]},{"long_name":"Беларусь","short_name":"BY","types":["country","political"]}],"formatted_address":"Барановичи, Беларусь","geometry":{"bounds":{"northeast":{"lat":53.1720645,"lng":26.0938811},"southwest":{"lat":53.08242569999999,"lng":25.9025004}},"location":{"lat":53.1255737,"lng":26.0091683},"location_type":"APPROXIMATE","viewport":{"northeast":{"lat":53.1720645,"lng":26.0938811},"southwest":{"lat":53.08242569999999,"lng":25.9025004}}},"place_id":"ChIJo-3kuenP2EYR6DaaW7uMh8g","types":["locality","political"]}],"status":"OK"},{"results":[{"address_components":[{"long_name":"Брест","short_name":"Брест","types":["locality","political"]},{"long_name":"Брестский район","short_name":"Брестский район","types":["administrative_area_level_2","political"]},{"long_name":"Брестская область","short_name":"Брестская область","types":["administrative_area_level_1","political"]},{"long_name":"Беларусь","short_name":"BY","types":["country","political"]}],"formatted_address":"Брест, Беларусь","geometry":{"bounds":{"northeast":{"lat":52.1511867,"lng":23.8501563},"southwest":{"lat":52.0236101,"lng":23.5659618}},"location":{"lat":52.09762139999999,"lng":23.7340503},"location_type":"APPROXIMATE","viewport":{"northeast":{"lat":52.1511867,"lng":23.8501563},"southwest":{"lat":52.0236101,"lng":23.5659618}}},"place_id":"ChIJdQljIwIMIUcRma5kH6SeMU0","types":["locality","political"]}],"status":"OK"},{"results":[{"address_components":[{"long_name":"Иваново","short_name":"Иваново","types":["locality","political"]},{"long_name":"Ивановский район","short_name":"Ивановский район","types":["administrative_area_level_2","political"]},{"long_name":"Брестская область","short_name":"Брестская область","types":["administrative_area_level_1","political"]},{"long_name":"Беларусь","short_name":"BY","types":["country","political"]}],"formatted_address":"Иваново, Беларусь","geometry":{"bounds":{"northeast":{"lat":52.1586906,"lng":25.5695199},"southwest":{"lat":52.1220144,"lng":25.4881096}},"location":{"lat":52.14588699999999,"lng":25.5329454},"location_type":"APPROXIMATE","viewport":{"northeast":{"lat":52.1586906,"lng":25.5695199},"southwest":{"lat":52.1220144,"lng":25.4881096}}},"place_id":"ChIJjc6s4REaJ0cRKHn9t44ye30","types":["locality","political"]}],"status":"OK"},{"results":[{"address_components":[{"long_name":"Кобрин","short_name":"Кобрин","types":["locality","political"]},{"long_name":"Кобринский район","short_name":"Кобринский район","types":["administrative_area_level_2","political"]},{"long_name":"Брестская область","short_name":"Брестская область","types":["administrative_area_level_1","political"]},{"long_name":"Беларусь","short_name":"BY","types":["country","political"]}],"formatted_address":"Кобрин, Беларусь","geometry":{"bounds":{"northeast":{"lat":52.2508995,"lng":24.4226073},"southwest":{"lat":52.18043189999999,"lng":24.3018757}},"location":{"lat":52.21411089999999,"lng":24.3581792},"location_type":"APPROXIMATE","viewport":{"northeast":{"lat":52.2508995,"lng":24.4226073},"southwest":{"lat":52.18043189999999,"lng":24.3018757}}},"place_id":"ChIJM4QymI4gIUcRDg8_KQiFiiE","types":["locality","political"]}],"status":"OK"},{"results":[{"address_components":[{"long_name":"Кобрин","short_name":"Кобрин","types":["locality","political"]},{"long_name":"Кобринский район","short_name":"Кобринский район","types":["administrative_area_level_2","political"]},{"long_name":"Брестская область","short_name":"Брестская область","types":["administrative_area_level_1","political"]},{"long_name":"Беларусь","short_name":"BY","types":["country","political"]}],"formatted_address":"Кобрин, Беларусь","geometry":{"bounds":{"northeast":{"lat":52.2508995,"lng":24.4226073},"southwest":{"lat":52.18043189999999,"lng":24.3018757}},"location":{"lat":52.21411089999999,"lng":24.3581792},"location_type":"APPROXIMATE","viewport":{"northeast":{"lat":52.2508995,"lng":24.4226073},"southwest":{"lat":52.18043189999999,"lng":24.3018757}}},"place_id":"ChIJM4QymI4gIUcRDg8_KQiFiiE","types":["locality","political"]}],"status":"OK"},{"results":[{"address_components":[{"long_name":"Малорита","short_name":"Малорита","types":["locality","political"]},{"long_name":"Малоритский район","short_name":"Малоритский район","types":["administrative_area_level_2","political"]},{"long_name":"Брестская область","short_name":"Брестская область","types":["administrative_area_level_1","political"]},{"long_name":"Беларусь","short_name":"BY","types":["country","political"]}],"formatted_address":"Малорита, Беларусь","geometry":{"bounds":{"northeast":{"lat":51.81248859999999,"lng":24.1163205},"southwest":{"lat":51.7779309,"lng":24.0408325}},"location":{"lat":51.7925615,"lng":24.0739629},"location_type":"APPROXIMATE","viewport":{"northeast":{"lat":51.81248859999999,"lng":24.1163205},"southwest":{"lat":51.7779309,"lng":24.0408325}}},"place_id":"ChIJUYaRCh1FIUcRfCv7_CVzEe0","types":["locality","political"]}],"status":"OK"},{"results":[{"address_components":[{"long_name":"Ветка","short_name":"Ветка","types":["locality","political"]},{"long_name":"Ветковский район","short_name":"Ветковский район","types":["administrative_area_level_2","political"]},{"long_name":"Гомельская область","short_name":"Гомельская область","types":["administrative_area_level_1","political"]},{"long_name":"Беларусь","short_name":"BY","types":["country","political"]}],"formatted_address":"Ветка, Беларусь","geometry":{"bounds":{"northeast":{"lat":52.58396459999999,"lng":31.2203979},"southwest":{"lat":52.5200858,"lng":31.1537933}},"location":{"lat":52.5662086,"lng":31.1730798},"location_type":"APPROXIMATE","viewport":{"northeast":{"lat":52.58396459999999,"lng":31.2203979},"southwest":{"lat":52.5200858,"lng":31.1537933}}},"place_id":"ChIJYT2ue1Nw1EYRJCHGTw8q9nE","types":["locality","political"]}],"status":"OK"},{"results":[{"address_components":[{"long_name":"Гомель","short_name":"Гомель","types":["locality","political"]},{"long_name":"Гомельский район","short_name":"Гомельский район","types":["administrative_area_level_2","political"]},{"long_name":"Гомельская область","short_name":"Гомельская область","types":["administrative_area_level_1","political"]},{"long_name":"Беларусь","short_name":"BY","types":["country","political"]}],"formatted_address":"Гомель, Беларусь","geometry":{"bounds":{"northeast":{"lat":52.5006794,"lng":31.171646},"southwest":{"lat":52.3452764,"lng":30.8004284}},"location":{"lat":52.4411761,"lng":30.9878462},"location_type":"APPROXIMATE","viewport":{"northeast":{"lat":52.5006794,"lng":31.171646},"southwest":{"lat":52.3452764,"lng":30.8004284}}},"place_id":"ChIJpfH6UJtp1EYRlhM20g-jzF4","types":["locality","political"]}],"status":"OK"},{"results":[{"address_components":[{"long_name":"Гомель","short_name":"Гомель","types":["locality","political"]},{"long_name":"Гомельский район","short_name":"Гомельский район","types":["administrative_area_level_2","political"]},{"long_name":"Гомельская область","short_name":"Гомельская область","types":["administrative_area_level_1","political"]},{"long_name":"Беларусь","short_name":"BY","types":["country","political"]}],"formatted_address":"Гомель, Беларусь","geometry":{"bounds":{"northeast":{"lat":52.5006794,"lng":31.171646},"southwest":{"lat":52.3452764,"lng":30.8004284}},"location":{"lat":52.4411761,"lng":30.9878462},"location_type":"APPROXIMATE","viewport":{"northeast":{"lat":52.5006794,"lng":31.171646},"southwest":{"lat":52.3452764,"lng":30.8004284}}},"place_id":"ChIJpfH6UJtp1EYRlhM20g-jzF4","types":["locality","political"]}],"status":"OK"},{"results":[{"address_components":[{"long_name":"Гомель","short_name":"Гомель","types":["locality","political"]},{"long_name":"Гомельский район","short_name":"Гомельский район","types":["administrative_area_level_2","political"]},{"long_name":"Гомельская область","short_name":"Гомельская область","types":["administrative_area_level_1","political"]},{"long_name":"Беларусь","short_name":"BY","types":["country","political"]}],"formatted_address":"Гомель, Беларусь","geometry":{"bounds":{"northeast":{"lat":52.5006794,"lng":31.171646},"southwest":{"lat":52.3452764,"lng":30.8004284}},"location":{"lat":52.4411761,"lng":30.9878462},"location_type":"APPROXIMATE","viewport":{"northeast":{"lat":52.5006794,"lng":31.171646},"southwest":{"lat":52.3452764,"lng":30.8004284}}},"place_id":"ChIJpfH6UJtp1EYRlhM20g-jzF4","types":["locality","political"]}],"status":"OK"},{"results":[{"address_components":[{"long_name":"Гомель","short_name":"Гомель","types":["locality","political"]},{"long_name":"Гомельский район","short_name":"Гомельский район","types":["administrative_area_level_2","political"]},{"long_name":"Гомельская область","short_name":"Гомельская область","types":["administrative_area_level_1","political"]},{"long_name":"Беларусь","short_name":"BY","types":["country","political"]}],"formatted_address":"Гомель, Беларусь","geometry":{"bounds":{"northeast":{"lat":52.5006794,"lng":31.171646},"southwest":{"lat":52.3452764,"lng":30.8004284}},"location":{"lat":52.4411761,"lng":30.9878462},"location_type":"APPROXIMATE","viewport":{"northeast":{"lat":52.5006794,"lng":31.171646},"southwest":{"lat":52.3452764,"lng":30.8004284}}},"place_id":"ChIJpfH6UJtp1EYRlhM20g-jzF4","types":["locality","political"]}],"status":"OK"},{"results":[{"address_components":[{"long_name":"Жлобин","short_name":"Жлобин","types":["locality","political"]},{"long_name":"Жлобинский район","short_name":"Жлобинский район","types":["administrative_area_level_2","political"]},{"long_name":"Гомельская область","short_name":"Гомельская область","types":["administrative_area_level_1","political"]},{"long_name":"Беларусь","short_name":"BY","types":["country","political"]}],"formatted_address":"Жлобин, Беларусь","geometry":{"bounds":{"northeast":{"lat":52.9232381,"lng":30.1015092},"southwest":{"lat":52.836373,"lng":29.951327}},"location":{"lat":52.8888952,"lng":30.0282481},"location_type":"APPROXIMATE","viewport":{"northeast":{"lat":52.9232381,"lng":30.1015092},"southwest":{"lat":52.836373,"lng":29.951327}}},"place_id":"ChIJM-iRfOq31kYRYwrMWES3dUA","types":["locality","political"]}],"status":"OK"},{"results":[{"address_components":[{"long_name":"Брагин","short_name":"Брагин","types":["locality","political"]},{"long_name":"Брагинский район","short_name":"Брагинский район","types":["administrative_area_level_2","political"]},{"long_name":"Гомельская область","short_name":"Гомельская область","types":["administrative_area_level_1","political"]},{"long_name":"Беларусь","short_name":"BY","types":["country","political"]}],"formatted_address":"Брагин, Беларусь","geometry":{"bounds":{"northeast":{"lat":51.8039445,"lng":30.2898216},"southwest":{"lat":51.773098,"lng":30.2449323}},"location":{"lat":51.7954009,"lng":30.2688788},"location_type":"APPROXIMATE","viewport":{"northeast":{"lat":51.8039445,"lng":30.2898216},"southwest":{"lat":51.773098,"lng":30.2449323}}},"partial_match":true,"place_id":"ChIJq7jNRmqX1UYRKopB-MxEbk4","types":["locality","political"]}],"status":"OK"},{"results":[{"address_components":[{"long_name":"Гродно","short_name":"Гродно","types":["locality","political"]},{"long_name":"Гродненский район","short_name":"Гродненский район","types":["administrative_area_level_2","political"]},{"long_name":"Гродненская область","short_name":"Гродненская область","types":["administrative_area_level_1","political"]},{"long_name":"Беларусь","short_name":"BY","types":["country","political"]}],"formatted_address":"Гродно, Беларусь","geometry":{"bounds":{"northeast":{"lat":53.7646446,"lng":24.0004922},"southwest":{"lat":53.6075811,"lng":23.7170791}},"location":{"lat":53.6693538,"lng":23.8131306},"location_type":"APPROXIMATE","viewport":{"northeast":{"lat":53.7646446,"lng":24.0004922},"southwest":{"lat":53.6075811,"lng":23.7170791}}},"place_id":"ChIJHV3F6kvW30YRwBiXVib9E_A","types":["locality","political"]}],"status":"OK"},{"results":[{"address_components":[{"long_name":"Гродно","short_name":"Гродно","types":["locality","political"]},{"long_name":"Гродненский район","short_name":"Гродненский район","types":["administrative_area_level_2","political"]},{"long_name":"Гродненская область","short_name":"Гродненская область","types":["administrative_area_level_1","political"]},{"long_name":"Беларусь","short_name":"BY","types":["country","political"]}],"formatted_address":"Гродно, Беларусь","geometry":{"bounds":{"northeast":{"lat":53.7646446,"lng":24.0004922},"southwest":{"lat":53.6075811,"lng":23.7170791}},"location":{"lat":53.6693538,"lng":23.8131306},"location_type":"APPROXIMATE","viewport":{"northeast":{"lat":53.7646446,"lng":24.0004922},"southwest":{"lat":53.6075811,"lng":23.7170791}}},"place_id":"ChIJHV3F6kvW30YRwBiXVib9E_A","types":["locality","political"]}],"status":"OK"},{"results":[{"address_components":[{"long_name":"Гродно","short_name":"Гродно","types":["locality","political"]},{"long_name":"Гродненский район","short_name":"Гродненский район","types":["administrative_area_level_2","political"]},{"long_name":"Гродненская область","short_name":"Гродненская область","types":["administrative_area_level_1","political"]},{"long_name":"Беларусь","short_name":"BY","types":["country","political"]}],"formatted_address":"Гродно, Беларусь","geometry":{"bounds":{"northeast":{"lat":53.7646446,"lng":24.0004922},"southwest":{"lat":53.6075811,"lng":23.7170791}},"location":{"lat":53.6693538,"lng":23.8131306},"location_type":"APPROXIMATE","viewport":{"northeast":{"lat":53.7646446,"lng":24.0004922},"southwest":{"lat":53.6075811,"lng":23.7170791}}},"place_id":"ChIJHV3F6kvW30YRwBiXVib9E_A","types":["locality","political"]}],"status":"OK"},{"results":[{"address_components":[{"long_name":"Гродно","short_name":"Гродно","types":["locality","political"]},{"long_name":"Гродненский район","short_name":"Гродненский район","types":["administrative_area_level_2","political"]},{"long_name":"Гродненская область","short_name":"Гродненская область","types":["administrative_area_level_1","political"]},{"long_name":"Беларусь","short_name":"BY","types":["country","political"]}],"formatted_address":"Гродно, Беларусь","geometry":{"bounds":{"northeast":{"lat":53.7646446,"lng":24.0004922},"southwest":{"lat":53.6075811,"lng":23.7170791}},"location":{"lat":53.6693538,"lng":23.8131306},"location_type":"APPROXIMATE","viewport":{"northeast":{"lat":53.7646446,"lng":24.0004922},"southwest":{"lat":53.6075811,"lng":23.7170791}}},"place_id":"ChIJHV3F6kvW30YRwBiXVib9E_A","types":["locality","political"]}],"status":"OK"},{"results":[{"address_components":[{"long_name":"Гродно","short_name":"Гродно","types":["locality","political"]},{"long_name":"Гродненский район","short_name":"Гродненский район","types":["administrative_area_level_2","political"]},{"long_name":"Гродненская область","short_name":"Гродненская область","types":["administrative_area_level_1","political"]},{"long_name":"Беларусь","short_name":"BY","types":["country","political"]}],"formatted_address":"Гродно, Беларусь","geometry":{"bounds":{"northeast":{"lat":53.7646446,"lng":24.0004922},"southwest":{"lat":53.6075811,"lng":23.7170791}},"location":{"lat":53.6693538,"lng":23.8131306},"location_type":"APPROXIMATE","viewport":{"northeast":{"lat":53.7646446,"lng":24.0004922},"southwest":{"lat":53.6075811,"lng":23.7170791}}},"place_id":"ChIJHV3F6kvW30YRwBiXVib9E_A","types":["locality","political"]}],"status":"OK"},{"results":[{"address_components":[{"long_name":"Гродно","short_name":"Гродно","types":["locality","political"]},{"long_name":"Гродненский район","short_name":"Гродненский район","types":["administrative_area_level_2","political"]},{"long_name":"Гродненская область","short_name":"Гродненская область","types":["administrative_area_level_1","political"]},{"long_name":"Беларусь","short_name":"BY","types":["country","political"]}],"formatted_address":"Гродно, Беларусь","geometry":{"bounds":{"northeast":{"lat":53.7646446,"lng":24.0004922},"southwest":{"lat":53.6075811,"lng":23.7170791}},"location":{"lat":53.6693538,"lng":23.8131306},"location_type":"APPROXIMATE","viewport":{"northeast":{"lat":53.7646446,"lng":24.0004922},"southwest":{"lat":53.6075811,"lng":23.7170791}}},"place_id":"ChIJHV3F6kvW30YRwBiXVib9E_A","types":["locality","political"]}],"status":"OK"},{"results":[{"address_components":[{"long_name":"железнодорожная станция Житомля","short_name":"железнодорожная станция Житомля","types":["point_of_interest","establishment"]},{"long_name":"Гродненский район","short_name":"Гродненский район","types":["administrative_area_level_2","political"]},{"long_name":"Гродненская область","short_name":"Гродненская область","types":["administrative_area_level_1","political"]},{"long_name":"Беларусь","short_name":"BY","types":["country","political"]}],"formatted_address":"железнодорожная станция Житомля, Беларусь","geometry":{"location":{"lat":53.6181372,"lng":24.1087979},"location_type":"APPROXIMATE","viewport":{"northeast":{"lat":53.6194861802915,"lng":24.1101468802915},"southwest":{"lat":53.6167882197085,"lng":24.1074489197085}}},"place_id":"ChIJ4ybFREjO30YRELO05_NzG_k","types":["train_station","transit_station","point_of_interest","establishment"]}],"status":"OK"},{"results":[{"address_components":[{"long_name":"Лида","short_name":"Лида","types":["locality","political"]},{"long_name":"Лидский район","short_name":"Лидский район","types":["administrative_area_level_2","political"]},{"long_name":"Гродненская область","short_name":"Гродненская область","types":["administrative_area_level_1","political"]},{"long_name":"Беларусь","short_name":"BY","types":["country","political"]}],"formatted_address":"Лида, Беларусь","geometry":{"bounds":{"northeast":{"lat":53.9487114,"lng":25.3580761},"southwest":{"lat":53.8573868,"lng":25.2298451}},"location":{"lat":53.8873843,"lng":25.2894383},"location_type":"APPROXIMATE","viewport":{"northeast":{"lat":53.9487114,"lng":25.3580761},"southwest":{"lat":53.8573868,"lng":25.2298451}}},"place_id":"ChIJm_YGmvCK3kYRA3928HHHgL8","types":["locality","political"]}],"status":"OK"},{"results":[{"address_components":[{"long_name":"Мир","short_name":"Мир","types":["locality","political"]},{"long_name":"Кореличский район","short_name":"Кореличский район","types":["administrative_area_level_2","political"]},{"long_name":"Гродненская область","short_name":"Гродненская область","types":["administrative_area_level_1","political"]},{"long_name":"Беларусь","short_name":"BY","types":["country","political"]}],"formatted_address":"Мир, Беларусь","geometry":{"bounds":{"northeast":{"lat":53.465365,"lng":26.4918995},"southwest":{"lat":53.4418545,"lng":26.4452933}},"location":{"lat":53.4539951,"lng":26.4698363},"location_type":"APPROXIMATE","viewport":{"northeast":{"lat":53.465365,"lng":26.4918995},"southwest":{"lat":53.4418545,"lng":26.4452933}}},"place_id":"ChIJq4NPrlM62UYRBFgUwSC2hMc","types":["locality","political"]}],"status":"OK"},{"results":[{"address_components":[{"long_name":"Сморгонь","short_name":"Сморгонь","types":["locality","political"]},{"long_name":"Сморгонский район","short_name":"Сморгонский район","types":["administrative_area_level_2","political"]},{"long_name":"Гродненская область","short_name":"Гродненская область","types":["administrative_area_level_1","political"]},{"long_name":"Беларусь","short_name":"BY","types":["country","political"]}],"formatted_address":"Сморгонь, Беларусь","geometry":{"bounds":{"northeast":{"lat":54.5111232,"lng":26.4417317},"southwest":{"lat":54.4562438,"lng":26.3524676}},"location":{"lat":54.4762327,"lng":26.3981493},"location_type":"APPROXIMATE","viewport":{"northeast":{"lat":54.5111232,"lng":26.4417317},"southwest":{"lat":54.4562438,"lng":26.3524676}}},"place_id":"ChIJFf_ZwLBD3EYRScUsMbeQW68","types":["locality","political"]}],"status":"OK"},{"results":[{"address_components":[{"long_name":"Щучин","short_name":"Щучин","types":["locality","political"]},{"long_name":"Щучинский район","short_name":"Щучинский район","types":["administrative_area_level_2","political"]},{"long_name":"Гродненская область","short_name":"Гродненская область","types":["administrative_area_level_1","political"]},{"long_name":"Беларусь","short_name":"BY","types":["country","political"]}],"formatted_address":"Щучин, Беларусь","geometry":{"bounds":{"northeast":{"lat":53.6221939,"lng":24.7567462},"southwest":{"lat":53.5799711,"lng":24.7145175}},"location":{"lat":53.6040518,"lng":24.741899},"location_type":"APPROXIMATE","viewport":{"northeast":{"lat":53.6221939,"lng":24.7567462},"southwest":{"lat":53.5799711,"lng":24.7145175}}},"place_id":"ChIJdb0BNCqt30YREzp9lSWCMz0","types":["locality","political"]}],"status":"OK"},{"results":[{"address_components":[{"long_name":"Борисов","short_name":"Борисов","types":["locality","political"]},{"long_name":"Борисовский район","short_name":"Борисовский район","types":["administrative_area_level_2","political"]},{"long_name":"Минская область","short_name":"Минская область","types":["administrative_area_level_1","political"]},{"long_name":"Беларусь","short_name":"BY","types":["country","political"]}],"formatted_address":"Борисов, Беларусь","geometry":{"bounds":{"northeast":{"lat":54.27366989999999,"lng":28.5816193},"southwest":{"lat":54.1648461,"lng":28.4381104}},"location":{"lat":54.2144309,"lng":28.508436},"location_type":"APPROXIMATE","viewport":{"northeast":{"lat":54.27366989999999,"lng":28.5816193},"southwest":{"lat":54.1648461,"lng":28.4381104}}},"place_id":"ChIJ6RkLsQ_42kYRVQpt1c8JjSY","types":["locality","political"]}],"status":"OK"},{"results":[{"address_components":[{"long_name":"Воложин","short_name":"Воложин","types":["locality","political"]},{"long_name":"Воложинский район","short_name":"Воложинский район","types":["administrative_area_level_2","political"]},{"long_name":"Минская область","short_name":"Минская область","types":["administrative_area_level_1","political"]},{"long_name":"Беларусь","short_name":"BY","types":["country","political"]}],"formatted_address":"Воложин, Беларусь","geometry":{"bounds":{"northeast":{"lat":54.10173409999999,"lng":26.5573025},"southwest":{"lat":54.0649543,"lng":26.4991308}},"location":{"lat":54.0878914,"lng":26.533109},"location_type":"APPROXIMATE","viewport":{"northeast":{"lat":54.10173409999999,"lng":26.5573025},"southwest":{"lat":54.0649543,"lng":26.4991308}}},"place_id":"ChIJg2UvErQF3EYRcqzzfU5Fl_g","types":["locality","political"]}],"status":"OK"},{"results":[{"address_components":[{"long_name":"Станьково","short_name":"Станьково","types":["locality","political"]},{"long_name":"Дзержинский район","short_name":"Дзержинский район","types":["administrative_area_level_2","political"]},{"long_name":"Минская область","short_name":"Минская область","types":["administrative_area_level_1","political"]},{"long_name":"Беларусь","short_name":"BY","types":["country","political"]}],"formatted_address":"Станьково, Беларусь","geometry":{"bounds":{"northeast":{"lat":53.645897,"lng":27.2445489},"southwest":{"lat":53.62341559999999,"lng":27.1974277}},"location":{"lat":53.6406159,"lng":27.2178192},"location_type":"APPROXIMATE","viewport":{"northeast":{"lat":53.645897,"lng":27.2445489},"southwest":{"lat":53.62341559999999,"lng":27.1974277}}},"partial_match":true,"place_id":"ChIJtejoVtZk2UYRuNsgtHIdCpI","types":["locality","political"]}],"status":"OK"},{"results":[{"address_components":[{"long_name":"Загорье","short_name":"Загорье","types":["locality","political"]},{"long_name":"Чечерский район","short_name":"Чечерский район","types":["administrative_area_level_2","political"]},{"long_name":"Гомельская область","short_name":"Гомельская область","types":["administrative_area_level_1","political"]},{"long_name":"Беларусь","short_name":"BY","types":["country","political"]}],"formatted_address":"Загорье, Беларусь","geometry":{"bounds":{"northeast":{"lat":53.0327748,"lng":30.98475},"southwest":{"lat":53.0237929,"lng":30.9568548}},"location":{"lat":53.0267438,"lng":30.9746283},"location_type":"APPROXIMATE","viewport":{"northeast":{"lat":53.0327748,"lng":30.98475},"southwest":{"lat":53.0237929,"lng":30.9568548}}},"place_id":"ChIJG94YZJDj00YRdUAQOsFZ1qY","types":["locality","political"]},{"address_components":[{"long_name":"Загорье","short_name":"Загорье","types":["locality","political"]},{"long_name":"Кореличский район","short_name":"Кореличский район","types":["administrative_area_level_2","political"]},{"long_name":"Гродненская область","short_name":"Гродненская область","types":["administrative_area_level_1","political"]},{"long_name":"Беларусь","short_name":"BY","types":["country","political"]}],"formatted_address":"Загорье, Беларусь","geometry":{"bounds":{"northeast":{"lat":53.5119388,"lng":26.3723802},"southwest":{"lat":53.49961099999999,"lng":26.3512232}},"location":{"lat":53.5064973,"lng":26.3620261},"location_type":"APPROXIMATE","viewport":{"northeast":{"lat":53.5119388,"lng":26.3723802},"southwest":{"lat":53.49961099999999,"lng":26.3512232}}},"place_id":"ChIJRQ1rLC8x2UYRObWQ8bcyKPQ","types":["locality","political"]},{"address_components":[{"long_name":"Загорье","short_name":"Загорье","types":["locality","political"]},{"long_name":"Смолевичский район","short_name":"Смолевичский район","types":["administrative_area_level_2","political"]},{"long_name":"Минская область","short_name":"Минская область","types":["administrative_area_level_1","political"]},{"long_name":"Беларусь","short_name":"BY","types":["country","political"]}],"formatted_address":"Загорье, Беларусь","geometry":{"bounds":{"northeast":{"lat":53.8488938,"lng":27.9314088},"southwest":{"lat":53.8467482,"lng":27.9253901}},"location":{"lat":53.8481166,"lng":27.9284099},"location_type":"APPROXIMATE","viewport":{"northeast":{"lat":53.8491699802915,"lng":27.9314088},"southwest":{"lat":53.8464720197085,"lng":27.9253901}}},"place_id":"ChIJleL1_88z2kYRGIFooM7qdXc","types":["locality","political"]},{"address_components":[{"long_name":"Загорье","short_name":"Загорье","types":["locality","political"]},{"long_name":"Борисовский район","short_name":"Борисовский район","types":["administrative_area_level_2","political"]},{"long_name":"Минская область","short_name":"Минская область","types":["administrative_area_level_1","political"]},{"long_name":"Беларусь","short_name":"BY","types":["country","political"]}],"formatted_address":"Загорье, Беларусь","geometry":{"bounds":{"northeast":{"lat":54.4143476,"lng":28.4142494},"southwest":{"lat":54.3958883,"lng":28.3930706}},"location":{"lat":54.4057065,"lng":28.4030107},"location_type":"APPROXIMATE","viewport":{"northeast":{"lat":54.4143476,"lng":28.4142494},"southwest":{"lat":54.3958883,"lng":28.3930706}}},"place_id":"ChIJRbdohKEC20YRB0-jjSCi_B8","types":["locality","political"]},{"address_components":[{"long_name":"Загорье","short_name":"Загорье","types":["locality","political"]},{"long_name":"Борисовский район","short_name":"Борисовский район","types":["administrative_area_level_2","political"]},{"long_name":"Минская область","short_name":"Минская область","types":["administrative_area_level_1","political"]},{"long_name":"Беларусь","short_name":"BY","types":["country","political"]}],"formatted_address":"Загорье, Беларусь","geometry":{"bounds":{"northeast":{"lat":54.5654687,"lng":28.183837},"southwest":{"lat":54.5581281,"lng":28.1712627}},"location":{"lat":54.5619528,"lng":28.1754146},"location_type":"APPROXIMATE","viewport":{"northeast":{"lat":54.5654687,"lng":28.183837},"southwest":{"lat":54.5581281,"lng":28.1712627}}},"place_id":"ChIJf3Tptd4Q20YRGQ47GIAuXWs","types":["locality","political"]},{"address_components":[{"long_name":"Загорье","short_name":"Загорье","types":["locality","political"]},{"long_name":"Барановичский район","short_name":"Барановичский район","types":["administrative_area_level_2","political"]},{"long_name":"Брестская область","short_name":"Брестская область","types":["administrative_area_level_1","political"]},{"long_name":"Беларусь","short_name":"BY","types":["country","political"]}],"formatted_address":"Загорье, Беларусь","geometry":{"bounds":{"northeast":{"lat":53.2214585,"lng":26.0927118},"southwest":{"lat":53.2130041,"lng":26.0849439}},"location":{"lat":53.2176133,"lng":26.088849},"location_type":"APPROXIMATE","viewport":{"northeast":{"lat":53.2214585,"lng":26.0927118},"southwest":{"lat":53.2130041,"lng":26.0849439}}},"place_id":"ChIJN5DRei7X2EYRlP3j2FdQEcA","types":["locality","political"]},{"address_components":[{"long_name":"Загорье","short_name":"Загорье","types":["locality","political"]},{"long_name":"Пружанский район","short_name":"Пружанский район","types":["administrative_area_level_2","political"]},{"long_name":"Брестская область","short_name":"Брестская область","types":["administrative_area_level_1","political"]},{"long_name":"Беларусь","short_name":"BY","types":["country","political"]}],"formatted_address":"Загорье, Беларусь","geometry":{"bounds":{"northeast":{"lat":52.5779017,"lng":24.6336865},"southwest":{"lat":52.5536938,"lng":24.6040537}},"location":{"lat":52.5619679,"lng":24.6167617},"location_type":"APPROXIMATE","viewport":{"northeast":{"lat":52.5779017,"lng":24.6336865},"southwest":{"lat":52.5536938,"lng":24.6040537}}},"place_id":"ChIJOUrQrMa_IEcRwvVL7E-a1nc","types":["locality","political"]},{"address_components":[{"long_name":"Загорье","short_name":"Загорье","types":["locality","political"]},{"long_name":"Шкловский район","short_name":"Шкловский район","types":["administrative_area_level_2","political"]},{"long_name":"Могилёвская область","short_name":"Могилёвская область","types":["administrative_area_level_1","political"]},{"long_name":"Беларусь","short_name":"BY","types":["country","political"]}],"formatted_address":"Загорье, Беларусь","geometry":{"bounds":{"northeast":{"lat":54.1704234,"lng":30.32865979999999},"southwest":{"lat":54.1460483,"lng":30.3186178}},"location":{"lat":54.1548691,"lng":30.3252594},"location_type":"APPROXIMATE","viewport":{"northeast":{"lat":54.1704234,"lng":30.32865979999999},"southwest":{"lat":54.1460483,"lng":30.3186178}}},"place_id":"ChIJi31TH9c-0EYRC1lurWMdqAY","types":["locality","political"]},{"address_components":[{"long_name":"Загорье","short_name":"Загорье","types":["locality","political"]},{"long_name":"Сморгонский район","short_name":"Сморгонский район","types":["administrative_area_level_2","political"]},{"long_name":"Гродненская область","short_name":"Гродненская область","types":["administrative_area_level_1","political"]},{"long_name":"Беларусь","short_name":"BY","types":["country","political"]}],"formatted_address":"Загорье, Беларусь","geometry":{"bounds":{"northeast":{"lat":54.3591445,"lng":26.47027},"southwest":{"lat":54.329288,"lng":26.4491987}},"location":{"lat":54.3342561,"lng":26.4568912},"location_type":"APPROXIMATE","viewport":{"northeast":{"lat":54.3591445,"lng":26.47027},"southwest":{"lat":54.329288,"lng":26.4491987}}},"place_id":"ChIJiWwPOCVr3EYRKE6HuIdsi1E","types":["locality","political"]},{"address_components":[{"long_name":"Загорье","short_name":"Загорье","types":["locality","political"]},{"long_name":"Слуцкий район","short_name":"Слуцкий район","types":["administrative_area_level_2","political"]},{"long_name":"Минская область","short_name":"Минская область","types":["administrative_area_level_1","political"]},{"long_name":"Беларусь","short_name":"BY","types":["country","political"]}],"formatted_address":"Загорье, Беларусь","geometry":{"bounds":{"northeast":{"lat":53.08719430000001,"lng":27.5396133},"southwest":{"lat":53.0824127,"lng":27.5320388}},"location":{"lat":53.0841827,"lng":27.5343664},"location_type":"APPROXIMATE","viewport":{"northeast":{"lat":53.08719430000001,"lng":27.5396133},"southwest":{"lat":53.0824127,"lng":27.5320388}}},"place_id":"ChIJ9Y8V4VG22UYRkvBZZmJAN1M","types":["locality","political"]},{"address_components":[{"long_name":"Загорье","short_name":"Загорье","types":["locality","political"]},{"long_name":"Солигорский район","short_name":"Солигорский район","types":["administrative_area_level_2","political"]},{"long_name":"Минская область","short_name":"Минская область","types":["administrative_area_level_1","political"]},{"long_name":"Беларусь","short_name":"BY","types":["country","political"]}],"formatted_address":"Загорье, Беларусь","geometry":{"bounds":{"northeast":{"lat":52.6749249,"lng":27.7678584},"southwest":{"lat":52.6664411,"lng":27.7569582}},"location":{"lat":52.6707045,"lng":27.7606951},"location_type":"APPROXIMATE","viewport":{"northeast":{"lat":52.6749249,"lng":27.7678584},"southwest":{"lat":52.6664411,"lng":27.7569582}}},"place_id":"ChIJc5N_MJsn2EYRCL3bZrP5mbw","types":["locality","political"]},{"address_components":[{"long_name":"Загорье","short_name":"Загорье","types":["locality","political"]},{"long_name":"Слонимский район","short_name":"Слонимский район","types":["administrative_area_level_2","political"]},{"long_name":"Гродненская область","short_name":"Гродненская область","types":["administrative_area_level_1","political"]},{"long_name":"Беларусь","short_name":"BY","types":["country","political"]}],"formatted_address":"Загорье, Беларусь","geometry":{"bounds":{"northeast":{"lat":52.9720846,"lng":25.361638},"southwest":{"lat":52.96657949999999,"lng":25.3565954}},"location":{"lat":52.9699694,"lng":25.3588027},"location_type":"APPROXIMATE","viewport":{"northeast":{"lat":52.9720846,"lng":25.361638},"southwest":{"lat":52.96657949999999,"lng":25.3565954}}},"place_id":"ChIJn0354AFP30YRBiTJtAHMkmo","types":["locality","political"]},{"address_components":[{"long_name":"Загорье","short_name":"Загорье","types":["locality","political"]},{"long_name":"Мёрский район","short_name":"Мёрский район","types":["administrative_area_level_2","political"]},{"long_name":"Витебская область","short_name":"Витебская область","types":["administrative_area_level_1","political"]},{"long_name":"Беларусь","short_name":"BY","types":["country","political"]}],"formatted_address":"Загорье, Беларусь","geometry":{"bounds":{"northeast":{"lat":55.6534276,"lng":27.6380396},"southwest":{"lat":55.64873,"lng":27.6283835}},"location":{"lat":55.6509358,"lng":27.6325082},"location_type":"APPROXIMATE","viewport":{"northeast":{"lat":55.6534276,"lng":27.6380396},"southwest":{"lat":55.64873,"lng":27.6283835}}},"place_id":"ChIJdReJ7RcUw0YRAHea2M0oFXs","types":["locality","political"]},{"address_components":[{"long_name":"Загорье","short_name":"Загорье","types":["locality","political"]},{"long_name":"Толочинский район","short_name":"Толочинский район","types":["administrative_area_level_2","political"]},{"long_name":"Витебская область","short_name":"Витебская область","types":["administrative_area_level_1","political"]},{"long_name":"Беларусь","short_name":"BY","types":["country","political"]}],"formatted_address":"Загорье, Беларусь","geometry":{"bounds":{"northeast":{"lat":54.3055324,"lng":29.4247128},"southwest":{"lat":54.30181380000001,"lng":29.4178247}},"location":{"lat":54.3039335,"lng":29.4215098},"location_type":"APPROXIMATE","viewport":{"northeast":{"lat":54.3055324,"lng":29.4247128},"southwest":{"lat":54.30181380000001,"lng":29.4178247}}},"place_id":"ChIJb1wFZh2Z2kYRJER5ELTNsf0","types":["locality","political"]},{"address_components":[{"long_name":"Загорье","short_name":"Загорье","types":["sublocality_level_1","sublocality","political"]},{"long_name":"Заславль","short_name":"Заславль","types":["locality","political"]},{"long_name":"Минский район","short_name":"Минский район","types":["administrative_area_level_2","political"]},{"long_name":"Минская область","short_name":"Минская область","types":["administrative_area_level_1","political"]},{"long_name":"Беларусь","short_name":"BY","types":["country","political"]}],"formatted_address":"Загорье, Заславль, Беларусь","geometry":{"bounds":{"northeast":{"lat":54.0070563,"lng":27.3397565},"southwest":{"lat":53.9973136,"lng":27.3161959}},"location":{"lat":54.0025787,"lng":27.3275658},"location_type":"APPROXIMATE","viewport":{"northeast":{"lat":54.0070563,"lng":27.3397565},"southwest":{"lat":53.9973136,"lng":27.3161959}}},"place_id":"ChIJWclmjG7C20YRqizpBdFAS5k","types":["sublocality_level_1","sublocality","political"]},{"address_components":[{"long_name":"загорье","short_name":"загорье","types":["neighborhood","political"]},{"long_name":"Ушачский район","short_name":"Ушачский район","types":["administrative_area_level_2","political"]},{"long_name":"Витебская область","short_name":"Витебская область","types":["administrative_area_level_1","political"]},{"long_name":"Беларусь","short_name":"BY","types":["country","political"]}],"formatted_address":"загорье, Беларусь","geometry":{"bounds":{"northeast":{"lat":55.17789430000001,"lng":28.9001893},"southwest":{"lat":55.1750475,"lng":28.8945754}},"location":{"lat":55.1761546,"lng":28.8977083},"location_type":"APPROXIMATE","viewport":{"northeast":{"lat":55.17789430000001,"lng":28.9001893},"southwest":{"lat":55.1750475,"lng":28.8945754}}},"place_id":"ChIJmfFeEnDDxEYRjOwje5TUodE","types":["neighborhood","political"]}],"status":"OK"},{"results":[{"address_components":[{"long_name":"Копыль","short_name":"Копыль","types":["locality","political"]},{"long_name":"Копыльский район","short_name":"Копыльский район","types":["administrative_area_level_2","political"]},{"long_name":"Минская область","short_name":"Минская область","types":["administrative_area_level_1","political"]},{"long_name":"Беларусь","short_name":"BY","types":["country","political"]}],"formatted_address":"Копыль, Беларусь","geometry":{"bounds":{"northeast":{"lat":53.1683343,"lng":27.1231413},"southwest":{"lat":53.13492859999999,"lng":27.0654202}},"location":{"lat":53.1511461,"lng":27.0908004},"location_type":"APPROXIMATE","viewport":{"northeast":{"lat":53.1683343,"lng":27.1231413},"southwest":{"lat":53.13492859999999,"lng":27.0654202}}},"place_id":"ChIJX1f70Siq2UYRnVO5Chkai6A","types":["locality","political"]}],"status":"OK"},{"results":[{"address_components":[{"long_name":"Копыль","short_name":"Копыль","types":["locality","political"]},{"long_name":"Копыльский район","short_name":"Копыльский район","types":["administrative_area_level_2","political"]},{"long_name":"Минская область","short_name":"Минская область","types":["administrative_area_level_1","political"]},{"long_name":"Беларусь","short_name":"BY","types":["country","political"]}],"formatted_address":"Копыль, Беларусь","geometry":{"bounds":{"northeast":{"lat":53.1683343,"lng":27.1231413},"southwest":{"lat":53.13492859999999,"lng":27.0654202}},"location":{"lat":53.1511461,"lng":27.0908004},"location_type":"APPROXIMATE","viewport":{"northeast":{"lat":53.1683343,"lng":27.1231413},"southwest":{"lat":53.13492859999999,"lng":27.0654202}}},"place_id":"ChIJX1f70Siq2UYRnVO5Chkai6A","types":["locality","political"]}],"status":"OK"},{"results":[{"address_components":[{"long_name":"Крупки","short_name":"Крупки","types":["locality","political"]},{"long_name":"Крупский район","short_name":"Крупский район","types":["administrative_area_level_2","political"]},{"long_name":"Минская область","short_name":"Минская область","types":["administrative_area_level_1","political"]},{"long_name":"Беларусь","short_name":"BY","types":["country","political"]}],"formatted_address":"Крупки, Беларусь","geometry":{"bounds":{"northeast":{"lat":54.3412859,"lng":29.1557622},"southwest":{"lat":54.3042805,"lng":29.1111946}},"location":{"lat":54.3269605,"lng":29.1426031},"location_type":"APPROXIMATE","viewport":{"northeast":{"lat":54.3412859,"lng":29.1557622},"southwest":{"lat":54.3042805,"lng":29.1111946}}},"place_id":"ChIJBzTaZ--T2kYRovkmiEGkRjk","types":["locality","political"]}],"status":"OK"},{"results":[{"address_components":[{"long_name":"Минск","short_name":"Минск","types":["locality","political"]},{"long_name":"Беларусь","short_name":"BY","types":["country","political"]}],"formatted_address":"Минск, Беларусь","geometry":{"bounds":{"northeast":{"lat":53.9715871,"lng":28.0641033},"southwest":{"lat":53.7961897,"lng":27.3753548}},"location":{"lat":53.90453979999999,"lng":27.5615244},"location_type":"APPROXIMATE","viewport":{"northeast":{"lat":53.9715871,"lng":27.8145933},"southwest":{"lat":53.7961897,"lng":27.3753548}}},"place_id":"ChIJ02oeW9PP20YR2XC13VO4YQs","types":["locality","political"]}],"status":"OK"},{"results":[{"address_components":[{"long_name":"Минск","short_name":"Минск","types":["locality","political"]},{"long_name":"Беларусь","short_name":"BY","types":["country","political"]}],"formatted_address":"Минск, Беларусь","geometry":{"bounds":{"northeast":{"lat":53.9715871,"lng":28.0641033},"southwest":{"lat":53.7961897,"lng":27.3753548}},"location":{"lat":53.90453979999999,"lng":27.5615244},"location_type":"APPROXIMATE","viewport":{"northeast":{"lat":53.9715871,"lng":27.8145933},"southwest":{"lat":53.7961897,"lng":27.3753548}}},"place_id":"ChIJ02oeW9PP20YR2XC13VO4YQs","types":["locality","political"]}],"status":"OK"},{"results":[{"address_components":[{"long_name":"Минск","short_name":"Минск","types":["locality","political"]},{"long_name":"Беларусь","short_name":"BY","types":["country","political"]}],"formatted_address":"Минск, Беларусь","geometry":{"bounds":{"northeast":{"lat":53.9715871,"lng":28.0641033},"southwest":{"lat":53.7961897,"lng":27.3753548}},"location":{"lat":53.90453979999999,"lng":27.5615244},"location_type":"APPROXIMATE","viewport":{"northeast":{"lat":53.9715871,"lng":27.8145933},"southwest":{"lat":53.7961897,"lng":27.3753548}}},"place_id":"ChIJ02oeW9PP20YR2XC13VO4YQs","types":["locality","political"]}],"status":"OK"},{"results":[{"address_components":[{"long_name":"Минск","short_name":"Минск","types":["locality","political"]},{"long_name":"Беларусь","short_name":"BY","types":["country","political"]}],"formatted_address":"Минск, Беларусь","geometry":{"bounds":{"northeast":{"lat":53.9715871,"lng":28.0641033},"southwest":{"lat":53.7961897,"lng":27.3753548}},"location":{"lat":53.90453979999999,"lng":27.5615244},"location_type":"APPROXIMATE","viewport":{"northeast":{"lat":53.9715871,"lng":27.8145933},"southwest":{"lat":53.7961897,"lng":27.3753548}}},"place_id":"ChIJ02oeW9PP20YR2XC13VO4YQs","types":["locality","political"]}],"status":"OK"},{"results":[{"address_components":[{"long_name":"Минск","short_name":"Минск","types":["locality","political"]},{"long_name":"Беларусь","short_name":"BY","types":["country","political"]}],"formatted_address":"Минск, Беларусь","geometry":{"bounds":{"northeast":{"lat":53.9715871,"lng":28.0641033},"southwest":{"lat":53.7961897,"lng":27.3753548}},"location":{"lat":53.90453979999999,"lng":27.5615244},"location_type":"APPROXIMATE","viewport":{"northeast":{"lat":53.9715871,"lng":27.8145933},"southwest":{"lat":53.7961897,"lng":27.3753548}}},"place_id":"ChIJ02oeW9PP20YR2XC13VO4YQs","types":["locality","political"]}],"status":"OK"},{"results":[{"address_components":[{"long_name":"Минск","short_name":"Минск","types":["locality","political"]},{"long_name":"Беларусь","short_name":"BY","types":["country","political"]}],"formatted_address":"Минск, Беларусь","geometry":{"bounds":{"northeast":{"lat":53.9715871,"lng":28.0641033},"southwest":{"lat":53.7961897,"lng":27.3753548}},"location":{"lat":53.90453979999999,"lng":27.5615244},"location_type":"APPROXIMATE","viewport":{"northeast":{"lat":53.9715871,"lng":27.8145933},"southwest":{"lat":53.7961897,"lng":27.3753548}}},"place_id":"ChIJ02oeW9PP20YR2XC13VO4YQs","types":["locality","political"]}],"status":"OK"},{"results":[{"address_components":[{"long_name":"Минск","short_name":"Минск","types":["locality","political"]},{"long_name":"Беларусь","short_name":"BY","types":["country","political"]}],"formatted_address":"Минск, Беларусь","geometry":{"bounds":{"northeast":{"lat":53.9715871,"lng":28.0641033},"southwest":{"lat":53.7961897,"lng":27.3753548}},"location":{"lat":53.90453979999999,"lng":27.5615244},"location_type":"APPROXIMATE","viewport":{"northeast":{"lat":53.9715871,"lng":27.8145933},"southwest":{"lat":53.7961897,"lng":27.3753548}}},"place_id":"ChIJ02oeW9PP20YR2XC13VO4YQs","types":["locality","political"]}],"status":"OK"},{"results":[{"address_components":[{"long_name":"Минск","short_name":"Минск","types":["locality","political"]},{"long_name":"Беларусь","short_name":"BY","types":["country","political"]}],"formatted_address":"Минск, Беларусь","geometry":{"bounds":{"northeast":{"lat":53.9715871,"lng":28.0641033},"southwest":{"lat":53.7961897,"lng":27.3753548}},"location":{"lat":53.90453979999999,"lng":27.5615244},"location_type":"APPROXIMATE","viewport":{"northeast":{"lat":53.9715871,"lng":27.8145933},"southwest":{"lat":53.7961897,"lng":27.3753548}}},"place_id":"ChIJ02oeW9PP20YR2XC13VO4YQs","types":["locality","political"]}],"status":"OK"},{"results":[{"address_components":[{"long_name":"Минск","short_name":"Минск","types":["locality","political"]},{"long_name":"Беларусь","short_name":"BY","types":["country","political"]}],"formatted_address":"Минск, Беларусь","geometry":{"bounds":{"northeast":{"lat":53.9715871,"lng":28.0641033},"southwest":{"lat":53.7961897,"lng":27.3753548}},"location":{"lat":53.90453979999999,"lng":27.5615244},"location_type":"APPROXIMATE","viewport":{"northeast":{"lat":53.9715871,"lng":27.8145933},"southwest":{"lat":53.7961897,"lng":27.3753548}}},"place_id":"ChIJ02oeW9PP20YR2XC13VO4YQs","types":["locality","political"]}],"status":"OK"},{"results":[{"address_components":[{"long_name":"Минск","short_name":"Минск","types":["locality","political"]},{"long_name":"Беларусь","short_name":"BY","types":["country","political"]}],"formatted_address":"Минск, Беларусь","geometry":{"bounds":{"northeast":{"lat":53.9715871,"lng":28.0641033},"southwest":{"lat":53.7961897,"lng":27.3753548}},"location":{"lat":53.90453979999999,"lng":27.5615244},"location_type":"APPROXIMATE","viewport":{"northeast":{"lat":53.9715871,"lng":27.8145933},"southwest":{"lat":53.7961897,"lng":27.3753548}}},"place_id":"ChIJ02oeW9PP20YR2XC13VO4YQs","types":["locality","political"]}],"status":"OK"},{"results":[{"address_components":[{"long_name":"Минск","short_name":"Минск","types":["locality","political"]},{"long_name":"Беларусь","short_name":"BY","types":["country","political"]}],"formatted_address":"Минск, Беларусь","geometry":{"bounds":{"northeast":{"lat":53.9715871,"lng":28.0641033},"southwest":{"lat":53.7961897,"lng":27.3753548}},"location":{"lat":53.90453979999999,"lng":27.5615244},"location_type":"APPROXIMATE","viewport":{"northeast":{"lat":53.9715871,"lng":27.8145933},"southwest":{"lat":53.7961897,"lng":27.3753548}}},"place_id":"ChIJ02oeW9PP20YR2XC13VO4YQs","types":["locality","political"]}],"status":"OK"},{"results":[{"address_components":[{"long_name":"Минск","short_name":"Минск","types":["locality","political"]},{"long_name":"Беларусь","short_name":"BY","types":["country","political"]}],"formatted_address":"Минск, Беларусь","geometry":{"bounds":{"northeast":{"lat":53.9715871,"lng":28.0641033},"southwest":{"lat":53.7961897,"lng":27.3753548}},"location":{"lat":53.90453979999999,"lng":27.5615244},"location_type":"APPROXIMATE","viewport":{"northeast":{"lat":53.9715871,"lng":27.8145933},"southwest":{"lat":53.7961897,"lng":27.3753548}}},"place_id":"ChIJ02oeW9PP20YR2XC13VO4YQs","types":["locality","political"]}],"status":"OK"},{"results":[{"address_components":[{"long_name":"Минск","short_name":"Минск","types":["locality","political"]},{"long_name":"Беларусь","short_name":"BY","types":["country","political"]}],"formatted_address":"Минск, Беларусь","geometry":{"bounds":{"northeast":{"lat":53.9715871,"lng":28.0641033},"southwest":{"lat":53.7961897,"lng":27.3753548}},"location":{"lat":53.90453979999999,"lng":27.5615244},"location_type":"APPROXIMATE","viewport":{"northeast":{"lat":53.9715871,"lng":27.8145933},"southwest":{"lat":53.7961897,"lng":27.3753548}}},"place_id":"ChIJ02oeW9PP20YR2XC13VO4YQs","types":["locality","political"]}],"status":"OK"},{"results":[{"address_components":[{"long_name":"Минск","short_name":"Минск","types":["locality","political"]},{"long_name":"Беларусь","short_name":"BY","types":["country","political"]}],"formatted_address":"Минск, Беларусь","geometry":{"bounds":{"northeast":{"lat":53.9715871,"lng":28.0641033},"southwest":{"lat":53.7961897,"lng":27.3753548}},"location":{"lat":53.90453979999999,"lng":27.5615244},"location_type":"APPROXIMATE","viewport":{"northeast":{"lat":53.9715871,"lng":27.8145933},"southwest":{"lat":53.7961897,"lng":27.3753548}}},"place_id":"ChIJ02oeW9PP20YR2XC13VO4YQs","types":["locality","political"]}],"status":"OK"},{"results":[{"address_components":[{"long_name":"Минск","short_name":"Минск","types":["locality","political"]},{"long_name":"Беларусь","short_name":"BY","types":["country","political"]}],"formatted_address":"Минск, Беларусь","geometry":{"bounds":{"northeast":{"lat":53.9715871,"lng":28.0641033},"southwest":{"lat":53.7961897,"lng":27.3753548}},"location":{"lat":53.90453979999999,"lng":27.5615244},"location_type":"APPROXIMATE","viewport":{"northeast":{"lat":53.9715871,"lng":27.8145933},"southwest":{"lat":53.7961897,"lng":27.3753548}}},"place_id":"ChIJ02oeW9PP20YR2XC13VO4YQs","types":["locality","political"]}],"status":"OK"},{"results":[{"address_components":[{"long_name":"Минск","short_name":"Минск","types":["locality","political"]},{"long_name":"Беларусь","short_name":"BY","types":["country","political"]}],"formatted_address":"Минск, Беларусь","geometry":{"bounds":{"northeast":{"lat":53.9715871,"lng":28.0641033},"southwest":{"lat":53.7961897,"lng":27.3753548}},"location":{"lat":53.90453979999999,"lng":27.5615244},"location_type":"APPROXIMATE","viewport":{"northeast":{"lat":53.9715871,"lng":27.8145933},"southwest":{"lat":53.7961897,"lng":27.3753548}}},"place_id":"ChIJ02oeW9PP20YR2XC13VO4YQs","types":["locality","political"]}],"status":"OK"},{"results":[{"address_components":[{"long_name":"Минск","short_name":"Минск","types":["locality","political"]},{"long_name":"Беларусь","short_name":"BY","types":["country","political"]}],"formatted_address":"Минск, Беларусь","geometry":{"bounds":{"northeast":{"lat":53.9715871,"lng":28.0641033},"southwest":{"lat":53.7961897,"lng":27.3753548}},"location":{"lat":53.90453979999999,"lng":27.5615244},"location_type":"APPROXIMATE","viewport":{"northeast":{"lat":53.9715871,"lng":27.8145933},"southwest":{"lat":53.7961897,"lng":27.3753548}}},"place_id":"ChIJ02oeW9PP20YR2XC13VO4YQs","types":["locality","political"]}],"status":"OK"},{"results":[{"address_components":[{"long_name":"Минск","short_name":"Минск","types":["locality","political"]},{"long_name":"Беларусь","short_name":"BY","types":["country","political"]}],"formatted_address":"Минск, Беларусь","geometry":{"bounds":{"northeast":{"lat":53.9715871,"lng":28.0641033},"southwest":{"lat":53.7961897,"lng":27.3753548}},"location":{"lat":53.90453979999999,"lng":27.5615244},"location_type":"APPROXIMATE","viewport":{"northeast":{"lat":53.9715871,"lng":27.8145933},"southwest":{"lat":53.7961897,"lng":27.3753548}}},"place_id":"ChIJ02oeW9PP20YR2XC13VO4YQs","types":["locality","political"]}],"status":"OK"},{"results":[{"address_components":[{"long_name":"Минск","short_name":"Минск","types":["locality","political"]},{"long_name":"Беларусь","short_name":"BY","types":["country","political"]}],"formatted_address":"Минск, Беларусь","geometry":{"bounds":{"northeast":{"lat":53.9715871,"lng":28.0641033},"southwest":{"lat":53.7961897,"lng":27.3753548}},"location":{"lat":53.90453979999999,"lng":27.5615244},"location_type":"APPROXIMATE","viewport":{"northeast":{"lat":53.9715871,"lng":27.8145933},"southwest":{"lat":53.7961897,"lng":27.3753548}}},"place_id":"ChIJ02oeW9PP20YR2XC13VO4YQs","types":["locality","political"]}],"status":"OK"},{"results":[{"address_components":[{"long_name":"Минск","short_name":"Минск","types":["locality","political"]},{"long_name":"Беларусь","short_name":"BY","types":["country","political"]}],"formatted_address":"Минск, Беларусь","geometry":{"bounds":{"northeast":{"lat":53.9715871,"lng":28.0641033},"southwest":{"lat":53.7961897,"lng":27.3753548}},"location":{"lat":53.90453979999999,"lng":27.5615244},"location_type":"APPROXIMATE","viewport":{"northeast":{"lat":53.9715871,"lng":27.8145933},"southwest":{"lat":53.7961897,"lng":27.3753548}}},"place_id":"ChIJ02oeW9PP20YR2XC13VO4YQs","types":["locality","political"]}],"status":"OK"},{"results":[{"address_components":[{"long_name":"Минск","short_name":"Минск","types":["locality","political"]},{"long_name":"Беларусь","short_name":"BY","types":["country","political"]}],"formatted_address":"Минск, Беларусь","geometry":{"bounds":{"northeast":{"lat":53.9715871,"lng":28.0641033},"southwest":{"lat":53.7961897,"lng":27.3753548}},"location":{"lat":53.90453979999999,"lng":27.5615244},"location_type":"APPROXIMATE","viewport":{"northeast":{"lat":53.9715871,"lng":27.8145933},"southwest":{"lat":53.7961897,"lng":27.3753548}}},"place_id":"ChIJ02oeW9PP20YR2XC13VO4YQs","types":["locality","political"]}],"status":"OK"},{"results":[{"address_components":[{"long_name":"Минск","short_name":"Минск","types":["locality","political"]},{"long_name":"Беларусь","short_name":"BY","types":["country","political"]}],"formatted_address":"Минск, Беларусь","geometry":{"bounds":{"northeast":{"lat":53.9715871,"lng":28.0641033},"southwest":{"lat":53.7961897,"lng":27.3753548}},"location":{"lat":53.90453979999999,"lng":27.5615244},"location_type":"APPROXIMATE","viewport":{"northeast":{"lat":53.9715871,"lng":27.8145933},"southwest":{"lat":53.7961897,"lng":27.3753548}}},"place_id":"ChIJ02oeW9PP20YR2XC13VO4YQs","types":["locality","political"]}],"status":"OK"},{"results":[{"address_components":[{"long_name":"Минск","short_name":"Минск","types":["locality","political"]},{"long_name":"Беларусь","short_name":"BY","types":["country","political"]}],"formatted_address":"Минск, Беларусь","geometry":{"bounds":{"northeast":{"lat":53.9715871,"lng":28.0641033},"southwest":{"lat":53.7961897,"lng":27.3753548}},"location":{"lat":53.90453979999999,"lng":27.5615244},"location_type":"APPROXIMATE","viewport":{"northeast":{"lat":53.9715871,"lng":27.8145933},"southwest":{"lat":53.7961897,"lng":27.3753548}}},"place_id":"ChIJ02oeW9PP20YR2XC13VO4YQs","types":["locality","political"]}],"status":"OK"},{"results":[{"address_components":[{"long_name":"Минск","short_name":"Минск","types":["locality","political"]},{"long_name":"Беларусь","short_name":"BY","types":["country","political"]}],"formatted_address":"Минск, Беларусь","geometry":{"bounds":{"northeast":{"lat":53.9715871,"lng":28.0641033},"southwest":{"lat":53.7961897,"lng":27.3753548}},"location":{"lat":53.90453979999999,"lng":27.5615244},"location_type":"APPROXIMATE","viewport":{"northeast":{"lat":53.9715871,"lng":27.8145933},"southwest":{"lat":53.7961897,"lng":27.3753548}}},"place_id":"ChIJ02oeW9PP20YR2XC13VO4YQs","types":["locality","political"]}],"status":"OK"},{"results":[{"address_components":[{"long_name":"Минск","short_name":"Минск","types":["locality","political"]},{"long_name":"Беларусь","short_name":"BY","types":["country","political"]}],"formatted_address":"Минск, Беларусь","geometry":{"bounds":{"northeast":{"lat":53.9715871,"lng":28.0641033},"southwest":{"lat":53.7961897,"lng":27.3753548}},"location":{"lat":53.90453979999999,"lng":27.5615244},"location_type":"APPROXIMATE","viewport":{"northeast":{"lat":53.9715871,"lng":27.8145933},"southwest":{"lat":53.7961897,"lng":27.3753548}}},"place_id":"ChIJ02oeW9PP20YR2XC13VO4YQs","types":["locality","political"]}],"status":"OK"},{"results":[{"address_components":[{"long_name":"Минск","short_name":"Минск","types":["locality","political"]},{"long_name":"Беларусь","short_name":"BY","types":["country","political"]}],"formatted_address":"Минск, Беларусь","geometry":{"bounds":{"northeast":{"lat":53.9715871,"lng":28.0641033},"southwest":{"lat":53.7961897,"lng":27.3753548}},"location":{"lat":53.90453979999999,"lng":27.5615244},"location_type":"APPROXIMATE","viewport":{"northeast":{"lat":53.9715871,"lng":27.8145933},"southwest":{"lat":53.7961897,"lng":27.3753548}}},"place_id":"ChIJ02oeW9PP20YR2XC13VO4YQs","types":["locality","political"]}],"status":"OK"},{"results":[{"address_components":[{"long_name":"Минск","short_name":"Минск","types":["locality","political"]},{"long_name":"Беларусь","short_name":"BY","types":["country","political"]}],"formatted_address":"Минск, Беларусь","geometry":{"bounds":{"northeast":{"lat":53.9715871,"lng":28.0641033},"southwest":{"lat":53.7961897,"lng":27.3753548}},"location":{"lat":53.90453979999999,"lng":27.5615244},"location_type":"APPROXIMATE","viewport":{"northeast":{"lat":53.9715871,"lng":27.8145933},"southwest":{"lat":53.7961897,"lng":27.3753548}}},"place_id":"ChIJ02oeW9PP20YR2XC13VO4YQs","types":["locality","political"]}],"status":"OK"},{"results":[{"address_components":[{"long_name":"Молодечненский район","short_name":"Молодечненский район","types":["administrative_area_level_2","political"]},{"long_name":"Минская область","short_name":"Минская область","types":["administrative_area_level_1","political"]},{"long_name":"Беларусь","short_name":"BY","types":["country","political"]}],"formatted_address":"Молодечненский район, Беларусь","geometry":{"bounds":{"northeast":{"lat":54.44057369999999,"lng":27.3330401},"southwest":{"lat":54.0639468,"lng":26.4289642}},"location":{"lat":54.2861415,"lng":26.8694289},"location_type":"APPROXIMATE","viewport":{"northeast":{"lat":54.44057369999999,"lng":27.3330401},"southwest":{"lat":54.0639468,"lng":26.4289642}}},"place_id":"ChIJ782QCv1x3EYR_sOO_BUhNBc","types":["administrative_area_level_2","political"]}],"status":"OK"},{"results":[{"address_components":[{"long_name":"Молодечно","short_name":"Молодечно","types":["locality","political"]},{"long_name":"Молодечненский район","short_name":"Молодечненский район","types":["administrative_area_level_2","political"]},{"long_name":"Минская область","short_name":"Минская область","types":["administrative_area_level_1","political"]},{"long_name":"Беларусь","short_name":"BY","types":["country","political"]}],"formatted_address":"Молодечно, Беларусь","geometry":{"bounds":{"northeast":{"lat":54.33558129999999,"lng":26.9244004},"southwest":{"lat":54.2871744,"lng":26.7846466}},"location":{"lat":54.3104099,"lng":26.8488824},"location_type":"APPROXIMATE","viewport":{"northeast":{"lat":54.33558129999999,"lng":26.9244004},"southwest":{"lat":54.2871744,"lng":26.7846466}}},"place_id":"ChIJq-1yumh03EYRtrg6mPbLTj4","types":["locality","political"]}],"status":"OK"},{"results":[{"address_components":[{"long_name":"Молодечно","short_name":"Молодечно","types":["locality","political"]},{"long_name":"Молодечненский район","short_name":"Молодечненский район","types":["administrative_area_level_2","political"]},{"long_name":"Минская область","short_name":"Минская область","types":["administrative_area_level_1","political"]},{"long_name":"Беларусь","short_name":"BY","types":["country","political"]}],"formatted_address":"Молодечно, Беларусь","geometry":{"bounds":{"northeast":{"lat":54.33558129999999,"lng":26.9244004},"southwest":{"lat":54.2871744,"lng":26.7846466}},"location":{"lat":54.3104099,"lng":26.8488824},"location_type":"APPROXIMATE","viewport":{"northeast":{"lat":54.33558129999999,"lng":26.9244004},"southwest":{"lat":54.2871744,"lng":26.7846466}}},"place_id":"ChIJq-1yumh03EYRtrg6mPbLTj4","types":["locality","political"]}],"status":"OK"},{"results":[{"address_components":[{"long_name":"Молодечно","short_name":"Молодечно","types":["locality","political"]},{"long_name":"Молодечненский район","short_name":"Молодечненский район","types":["administrative_area_level_2","political"]},{"long_name":"Минская область","short_name":"Минская область","types":["administrative_area_level_1","political"]},{"long_name":"Беларусь","short_name":"BY","types":["country","political"]}],"formatted_address":"Молодечно, Беларусь","geometry":{"bounds":{"northeast":{"lat":54.33558129999999,"lng":26.9244004},"southwest":{"lat":54.2871744,"lng":26.7846466}},"location":{"lat":54.3104099,"lng":26.8488824},"location_type":"APPROXIMATE","viewport":{"northeast":{"lat":54.33558129999999,"lng":26.9244004},"southwest":{"lat":54.2871744,"lng":26.7846466}}},"place_id":"ChIJq-1yumh03EYRtrg6mPbLTj4","types":["locality","political"]}],"status":"OK"},{"results":[{"address_components":[{"long_name":"Молодечно","short_name":"Молодечно","types":["locality","political"]},{"long_name":"Молодечненский район","short_name":"Молодечненский район","types":["administrative_area_level_2","political"]},{"long_name":"Минская область","short_name":"Минская область","types":["administrative_area_level_1","political"]},{"long_name":"Беларусь","short_name":"BY","types":["country","political"]}],"formatted_address":"Молодечно, Беларусь","geometry":{"bounds":{"northeast":{"lat":54.33558129999999,"lng":26.9244004},"southwest":{"lat":54.2871744,"lng":26.7846466}},"location":{"lat":54.3104099,"lng":26.8488824},"location_type":"APPROXIMATE","viewport":{"northeast":{"lat":54.33558129999999,"lng":26.9244004},"southwest":{"lat":54.2871744,"lng":26.7846466}}},"place_id":"ChIJq-1yumh03EYRtrg6mPbLTj4","types":["locality","political"]}],"status":"OK"},{"results":[{"address_components":[{"long_name":"Мядель","short_name":"Мядель","types":["locality","political"]},{"long_name":"Мядельский район","short_name":"Мядельский район","types":["administrative_area_level_2","political"]},{"long_name":"Минская область","short_name":"Минская область","types":["administrative_area_level_1","political"]},{"long_name":"Беларусь","short_name":"BY","types":["country","political"]}],"formatted_address":"Мядель, Беларусь","geometry":{"bounds":{"northeast":{"lat":54.8947258,"lng":26.9761562},"southwest":{"lat":54.8609002,"lng":26.8989086}},"location":{"lat":54.8792774,"lng":26.9401343},"location_type":"APPROXIMATE","viewport":{"northeast":{"lat":54.8947258,"lng":26.9761562},"southwest":{"lat":54.8609002,"lng":26.8989086}}},"place_id":"ChIJSTrOcVST3EYRCu7cMghbAiA","types":["locality","political"]}],"status":"OK"},{"results":[{"address_components":[{"long_name":"Несвиж","short_name":"Несвиж","types":["locality","political"]},{"long_name":"Несвижский район","short_name":"Несвижский район","types":["administrative_area_level_2","political"]},{"long_name":"Минская область","short_name":"Минская область","types":["administrative_area_level_1","political"]},{"long_name":"Беларусь","short_name":"BY","types":["country","political"]}],"formatted_address":"Несвиж, Беларусь","geometry":{"bounds":{"northeast":{"lat":53.24224659999999,"lng":26.708536},"southwest":{"lat":53.201727,"lng":26.6411806}},"location":{"lat":53.22260379999999,"lng":26.6766138},"location_type":"APPROXIMATE","viewport":{"northeast":{"lat":53.24224659999999,"lng":26.708536},"southwest":{"lat":53.201727,"lng":26.6411806}}},"place_id":"ChIJ-5GEdEgc2UYR4pu39s1-goc","types":["locality","political"]}],"status":"OK"},{"results":[{"address_components":[{"long_name":"Чисть","short_name":"Чисть","types":["locality","political"]},{"long_name":"Молодечненский район","short_name":"Молодечненский район","types":["administrative_area_level_2","political"]},{"long_name":"Минская область","short_name":"Минская область","types":["administrative_area_level_1","political"]},{"long_name":"Беларусь","short_name":"BY","types":["country","political"]}],"formatted_address":"Чисть, Беларусь","geometry":{"bounds":{"northeast":{"lat":54.279007,"lng":27.1286774},"southwest":{"lat":54.254044,"lng":27.0850754}},"location":{"lat":54.2665388,"lng":27.1093746},"location_type":"APPROXIMATE","viewport":{"northeast":{"lat":54.279007,"lng":27.1286774},"southwest":{"lat":54.254044,"lng":27.0850754}}},"partial_match":true,"place_id":"ChIJuVLbtwWM20YRqU4eVSmofqw","types":["locality","political"]}],"status":"OK"},{"results":[{"address_components":[{"long_name":"Пуховичи","short_name":"Пуховичи","types":["locality","political"]},{"long_name":"Пуховичский район","short_name":"Пуховичский район","types":["administrative_area_level_2","political"]},{"long_name":"Минская область","short_name":"Минская область","types":["administrative_area_level_1","political"]},{"long_name":"Беларусь","short_name":"BY","types":["country","political"]}],"formatted_address":"Пуховичи, Беларусь","geometry":{"bounds":{"northeast":{"lat":53.5444895,"lng":28.2673932},"southwest":{"lat":53.5190327,"lng":28.2314301}},"location":{"lat":53.5339049,"lng":28.2501616},"location_type":"APPROXIMATE","viewport":{"northeast":{"lat":53.5444895,"lng":28.2673932},"southwest":{"lat":53.5190327,"lng":28.2314301}}},"place_id":"ChIJRZCBbwge2kYR6tFO3gZTaYI","types":["locality","political"]},{"address_components":[{"long_name":"Пуховичи","short_name":"Пуховичи","types":["locality","political"]},{"long_name":"Житковичский район","short_name":"Житковичский район","types":["administrative_area_level_2","political"]},{"long_name":"Гомельская область","short_name":"Гомельская область","types":["administrative_area_level_1","political"]},{"long_name":"Беларусь","short_name":"BY","types":["country","political"]}],"formatted_address":"Пуховичи, Беларусь","geometry":{"bounds":{"northeast":{"lat":52.384375,"lng":27.9812338},"southwest":{"lat":52.35877619999999,"lng":27.931881}},"location":{"lat":52.37566040000001,"lng":27.9702863},"location_type":"APPROXIMATE","viewport":{"northeast":{"lat":52.384375,"lng":27.9812338},"southwest":{"lat":52.35877619999999,"lng":27.931881}}},"place_id":"ChIJiQgM5lvp10YROpPvv2ByiV4","types":["locality","political"]}],"status":"OK"},{"results":[{"address_components":[{"long_name":"Силичи","short_name":"Силичи","types":["locality","political"]},{"long_name":"Логойский район","short_name":"Логойский район","types":["administrative_area_level_2","political"]},{"long_name":"Минская область","short_name":"Минская область","types":["administrative_area_level_1","political"]},{"long_name":"Беларусь","short_name":"BY","types":["country","political"]}],"formatted_address":"Силичи, Беларусь","geometry":{"bounds":{"northeast":{"lat":54.1680618,"lng":27.8277682},"southwest":{"lat":54.15524720000001,"lng":27.8138639}},"location":{"lat":54.1626811,"lng":27.8211076},"location_type":"APPROXIMATE","viewport":{"northeast":{"lat":54.1680618,"lng":27.8277682},"southwest":{"lat":54.15524720000001,"lng":27.8138639}}},"place_id":"ChIJQ9PYS3Cw20YRVy2UiVJ8e4k","types":["locality","political"]},{"address_components":[{"long_name":"Силичи","short_name":"Силичи","types":["locality","political"]},{"long_name":"Пружанский район","short_name":"Пружанский район","types":["administrative_area_level_2","political"]},{"long_name":"Брестская область","short_name":"Брестская область","types":["administrative_area_level_1","political"]},{"long_name":"Беларусь","short_name":"BY","types":["country","political"]}],"formatted_address":"Силичи, Беларусь","geometry":{"bounds":{"northeast":{"lat":52.65376449999999,"lng":24.4883966},"southwest":{"lat":52.6490391,"lng":24.4789338}},"location":{"lat":52.6507006,"lng":24.4817106},"location_type":"APPROXIMATE","viewport":{"northeast":{"lat":52.65376449999999,"lng":24.4883966},"southwest":{"lat":52.6490391,"lng":24.4789338}}},"place_id":"ChIJJze5WOeTIEcRTIyj4qhQGQU","types":["locality","political"]}],"status":"OK"},{"results":[{"address_components":[{"long_name":"Старые Дороги","short_name":"Старые Дороги","types":["locality","political"]},{"long_name":"Стародорожский район","short_name":"Стародорожский район","types":["administrative_area_level_2","political"]},{"long_name":"Минская область","short_name":"Минская область","types":["administrative_area_level_1","political"]},{"long_name":"Беларусь","short_name":"BY","types":["country","political"]}],"formatted_address":"Старые Дороги, Беларусь","geometry":{"bounds":{"northeast":{"lat":53.0566401,"lng":28.2900525},"southwest":{"lat":53.0192754,"lng":28.2175254}},"location":{"lat":53.03898969999999,"lng":28.2605496},"location_type":"APPROXIMATE","viewport":{"northeast":{"lat":53.0566401,"lng":28.2900525},"southwest":{"lat":53.0192754,"lng":28.2175254}}},"place_id":"ChIJP7GO0y9i10YRAvOxiFda0cI","types":["locality","political"]}],"status":"OK"},{"results":[{"address_components":[{"long_name":"Языль","short_name":"Языль","types":["locality","political"]},{"long_name":"Стародорожский район","short_name":"Стародорожский район","types":["administrative_area_level_2","political"]},{"long_name":"Минская область","short_name":"Минская область","types":["administrative_area_level_1","political"]},{"long_name":"Беларусь","short_name":"BY","types":["country","political"]}],"formatted_address":"Языль, Беларусь","geometry":{"bounds":{"northeast":{"lat":52.9896548,"lng":27.9894304},"southwest":{"lat":52.96515789999999,"lng":27.9535103}},"location":{"lat":52.9797399,"lng":27.9676627},"location_type":"APPROXIMATE","viewport":{"northeast":{"lat":52.9896548,"lng":27.9894304},"southwest":{"lat":52.96515789999999,"lng":27.9535103}}},"place_id":"ChIJYzuTl9bW2UYRw3Gk5jrO1OI","types":["locality","political"]}],"status":"OK"},{"results":[{"address_components":[{"long_name":"Бобруйск","short_name":"Бобруйск","types":["locality","political"]},{"long_name":"Бобруйский район","short_name":"Бобруйский район","types":["administrative_area_level_2","political"]},{"long_name":"Могилёвская область","short_name":"Могилёвская область","types":["administrative_area_level_1","political"]},{"long_name":"Беларусь","short_name":"BY","types":["country","political"]}],"formatted_address":"Бобруйск, Беларусь","geometry":{"bounds":{"northeast":{"lat":53.2172378,"lng":29.3226816},"southwest":{"lat":53.0712367,"lng":29.1381453}},"location":{"lat":53.1446069,"lng":29.2213753},"location_type":"APPROXIMATE","viewport":{"northeast":{"lat":53.2172378,"lng":29.3226816},"southwest":{"lat":53.0712367,"lng":29.1381453}}},"place_id":"ChIJKQT9w3Ux10YR8hw5YAjEvvM","types":["locality","political"]}],"status":"OK"},{"results":[{"address_components":[{"long_name":"Бобруйск","short_name":"Бобруйск","types":["locality","political"]},{"long_name":"Бобруйский район","short_name":"Бобруйский район","types":["administrative_area_level_2","political"]},{"long_name":"Могилёвская область","short_name":"Могилёвская область","types":["administrative_area_level_1","political"]},{"long_name":"Беларусь","short_name":"BY","types":["country","political"]}],"formatted_address":"Бобруйск, Беларусь","geometry":{"bounds":{"northeast":{"lat":53.2172378,"lng":29.3226816},"southwest":{"lat":53.0712367,"lng":29.1381453}},"location":{"lat":53.1446069,"lng":29.2213753},"location_type":"APPROXIMATE","viewport":{"northeast":{"lat":53.2172378,"lng":29.3226816},"southwest":{"lat":53.0712367,"lng":29.1381453}}},"place_id":"ChIJKQT9w3Ux10YR8hw5YAjEvvM","types":["locality","political"]}],"status":"OK"},{"results":[{"address_components":[{"long_name":"Осиповичи","short_name":"Осиповичи","types":["locality","political"]},{"long_name":"Осиповичский район","short_name":"Осиповичский район","types":["administrative_area_level_2","political"]},{"long_name":"Могилёвская область","short_name":"Могилёвская область","types":["administrative_area_level_1","political"]},{"long_name":"Беларусь","short_name":"BY","types":["country","political"]}],"formatted_address":"Осиповичи, Беларусь","geometry":{"bounds":{"northeast":{"lat":53.3326157,"lng":28.6848735},"southwest":{"lat":53.2832794,"lng":28.576126}},"location":{"lat":53.30487919999999,"lng":28.6357281},"location_type":"APPROXIMATE","viewport":{"northeast":{"lat":53.3326157,"lng":28.6848735},"southwest":{"lat":53.2832794,"lng":28.576126}}},"place_id":"ChIJG0ZR0jVR10YRjDybmrfDSUM","types":["locality","political"]}],"status":"OK"},{"results":[{"address_components":[{"long_name":"Антверпен","short_name":"Антверпен","types":["locality","political"]},{"long_name":"Антверпен","short_name":"AN","types":["administrative_area_level_2","political"]},{"long_name":"Фламандский регион","short_name":"Фламандский регион","types":["administrative_area_level_1","political"]},{"long_name":"Бельгия","short_name":"BE","types":["country","political"]}],"formatted_address":"Антверпен, Бельгия","geometry":{"bounds":{"northeast":{"lat":51.3774301,"lng":4.49784},"southwest":{"lat":51.14333999999999,"lng":4.217600099999999}},"location":{"lat":51.2194475,"lng":4.4024643},"location_type":"APPROXIMATE","viewport":{"northeast":{"lat":51.3774301,"lng":4.49784},"southwest":{"lat":51.14333999999999,"lng":4.217600099999999}}},"place_id":"ChIJfYjDv472w0cRuIqogoRErz4","types":["locality","political"]}],"status":"OK"},{"results":[{"address_components":[{"long_name":"Брюссель","short_name":"Брюссель","types":["locality","political"]},{"long_name":"Брюссельский столичный регион","short_name":"Брюссельский столичный регион","types":["administrative_area_level_1","political"]},{"long_name":"Бельгия","short_name":"BE","types":["country","political"]}],"formatted_address":"Брюссель, Бельгия","geometry":{"bounds":{"northeast":{"lat":50.91370999999999,"lng":4.4369799},"southwest":{"lat":50.7962401,"lng":4.3138}},"location":{"lat":50.8503396,"lng":4.3517103},"location_type":"APPROXIMATE","viewport":{"northeast":{"lat":50.91370999999999,"lng":4.4369799},"southwest":{"lat":50.7962401,"lng":4.3138}}},"place_id":"ChIJZ2jHc-2kw0cRpwJzeGY6i8E","types":["locality","political"]}],"status":"OK"},{"results":[{"address_components":[{"long_name":"Брюссель","short_name":"Брюссель","types":["locality","political"]},{"long_name":"Брюссельский столичный регион","short_name":"Брюссельский столичный регион","types":["administrative_area_level_1","political"]},{"long_name":"Бельгия","short_name":"BE","types":["country","political"]}],"formatted_address":"Брюссель, Бельгия","geometry":{"bounds":{"northeast":{"lat":50.91370999999999,"lng":4.4369799},"southwest":{"lat":50.7962401,"lng":4.3138}},"location":{"lat":50.8503396,"lng":4.3517103},"location_type":"APPROXIMATE","viewport":{"northeast":{"lat":50.91370999999999,"lng":4.4369799},"southwest":{"lat":50.7962401,"lng":4.3138}}},"place_id":"ChIJZ2jHc-2kw0cRpwJzeGY6i8E","types":["locality","political"]}],"status":"OK"},{"results":[{"address_components":[{"long_name":"Гент","short_name":"Гент","types":["locality","political"]},{"long_name":"Восточная Фландрия","short_name":"OV","types":["administrative_area_level_2","political"]},{"long_name":"Фламандский регион","short_name":"Фламандский регион","types":["administrative_area_level_1","political"]},{"long_name":"Бельгия","short_name":"BE","types":["country","political"]}],"formatted_address":"Гент, Бельгия","geometry":{"bounds":{"northeast":{"lat":51.1880501,"lng":3.8492301},"southwest":{"lat":50.97683,"lng":3.57974}},"location":{"lat":51.0543422,"lng":3.7174243},"location_type":"APPROXIMATE","viewport":{"northeast":{"lat":51.1880501,"lng":3.8492301},"southwest":{"lat":50.97683,"lng":3.57974}}},"place_id":"ChIJrUOUM-Fww0cRQFFNL6uZAAQ","types":["locality","political"]}],"status":"OK"},{"results":[{"address_components":[{"long_name":"Маасмехелен","short_name":"Маасмехелен","types":["locality","political"]},{"long_name":"Лимбург","short_name":"LI","types":["administrative_area_level_2","political"]},{"long_name":"Фламандский регион","short_name":"Фламандский регион","types":["administrative_area_level_1","political"]},{"long_name":"Бельгия","short_name":"BE","types":["country","political"]}],"formatted_address":"Маасмехелен, Бельгия","geometry":{"bounds":{"northeast":{"lat":51.0123201,"lng":5.767399999999999},"southwest":{"lat":50.91052,"lng":5.595180099999999}},"location":{"lat":50.97975580000001,"lng":5.7018474},"location_type":"APPROXIMATE","viewport":{"northeast":{"lat":51.0123201,"lng":5.767399999999999},"southwest":{"lat":50.91052,"lng":5.595180099999999}}},"place_id":"ChIJ0xlmxofEwEcRwFz8TDdkBOc","types":["locality","political"]}],"status":"OK"},{"results":[{"address_components":[{"long_name":"Торхаут","short_name":"Торхаут","types":["locality","political"]},{"long_name":"Западная Фландрия","short_name":"WV","types":["administrative_area_level_2","political"]},{"long_name":"Фламандский регион","short_name":"Фламандский регион","types":["administrative_area_level_1","political"]},{"long_name":"Бельгия","short_name":"BE","types":["country","political"]}],"formatted_address":"Торхаут, Бельгия","geometry":{"bounds":{"northeast":{"lat":51.10378009999999,"lng":3.15782},"southwest":{"lat":51.01347999999999,"lng":3.04349}},"location":{"lat":51.06498,"lng":3.10157},"location_type":"APPROXIMATE","viewport":{"northeast":{"lat":51.10378009999999,"lng":3.15782},"southwest":{"lat":51.01347999999999,"lng":3.04349}}},"place_id":"ChIJ-W5kWX1Mw0cRsHN5p0g88S4","types":["locality","political"]}],"status":"OK"},{"results":[{"address_components":[{"long_name":"Плевен","short_name":"Плевен","types":["locality","political"]},{"long_name":"Плевен","short_name":"Плевен","types":["administrative_area_level_2","political"]},{"long_name":"Плевен","short_name":"Плевен","types":["administrative_area_level_1","political"]},{"long_name":"Болгария","short_name":"BG","types":["country","political"]}],"formatted_address":"Плевен, Болгария","geometry":{"bounds":{"northeast":{"lat":43.4504952,"lng":24.6600647},"southwest":{"lat":43.3918598,"lng":24.5690017}},"location":{"lat":43.4170423,"lng":24.6066847},"location_type":"APPROXIMATE","viewport":{"northeast":{"lat":43.43162419999999,"lng":24.6600647},"southwest":{"lat":43.3918598,"lng":24.5821855}}},"place_id":"ChIJuwC0NInzq0ARIFa_aRKgAAQ","types":["locality","political"]}],"status":"OK"},{"results":[{"address_components":[{"long_name":"Каварна","short_name":"Каварна","types":["locality","political"]},{"long_name":"Каварна","short_name":"Каварна","types":["administrative_area_level_2","political"]},{"long_name":"Добричская область","short_name":"Добричская область","types":["administrative_area_level_1","political"]},{"long_name":"Болгария","short_name":"BG","types":["country","political"]},{"long_name":"9650","short_name":"9650","types":["postal_code"]}],"formatted_address":"9650 Каварна, Болгария","geometry":{"bounds":{"northeast":{"lat":43.4443331,"lng":28.3660994},"southwest":{"lat":43.4105776,"lng":28.3216315}},"location":{"lat":43.43305609999999,"lng":28.3351756},"location_type":"APPROXIMATE","viewport":{"northeast":{"lat":43.4443331,"lng":28.3660994},"southwest":{"lat":43.4105776,"lng":28.3216315}}},"place_id":"ChIJi_vPvYvopEAR4zKtHzqgFN8","types":["locality","political"]}],"status":"OK"},{"results":[{"address_components":[{"long_name":"Мальёвица","short_name":"Мальёвица","types":["natural_feature","establishment"]},{"long_name":"Кюстендилская область","short_name":"Кюстендилская область","types":["administrative_area_level_1","political"]},{"long_name":"Болгария","short_name":"BG","types":["country","political"]},{"long_name":"2643","short_name":"2643","types":["postal_code"]}],"formatted_address":"Мальёвица, 2643, Болгария","geometry":{"location":{"lat":42.1666667,"lng":23.3666667},"location_type":"APPROXIMATE","viewport":{"northeast":{"lat":42.199739,"lng":23.4306964},"southwest":{"lat":42.1335771,"lng":23.302637}}},"place_id":"ChIJ3QfZHBHiqhQR32SB-sDwFiM","types":["natural_feature","establishment"]}],"status":"OK"},{"results":[{"address_components":[{"long_name":"София","short_name":"София","types":["locality","political"]},{"long_name":"Столична","short_name":"Столична","types":["administrative_area_level_2","political"]},{"long_name":"София-град","short_name":"София-град","types":["administrative_area_level_1","political"]},{"long_name":"Болгария","short_name":"BG","types":["country","political"]}],"formatted_address":"София, Болгария","geometry":{"bounds":{"northeast":{"lat":42.7877752,"lng":23.4569049},"southwest":{"lat":42.4900111,"lng":23.1909885}},"location":{"lat":42.6977082,"lng":23.3218675},"location_type":"APPROXIMATE","viewport":{"northeast":{"lat":42.7877752,"lng":23.4569049},"southwest":{"lat":42.6030891,"lng":23.1909885}}},"place_id":"ChIJ9Xsxy4KGqkARYF6_aRKgAAQ","types":["locality","political"]}],"status":"OK"},{"results":[{"address_components":[{"long_name":"София","short_name":"София","types":["locality","political"]},{"long_name":"Столична","short_name":"Столична","types":["administrative_area_level_2","political"]},{"long_name":"София-град","short_name":"София-град","types":["administrative_area_level_1","political"]},{"long_name":"Болгария","short_name":"BG","types":["country","political"]}],"formatted_address":"София, Болгария","geometry":{"bounds":{"northeast":{"lat":42.7877752,"lng":23.4569049},"southwest":{"lat":42.4900111,"lng":23.1909885}},"location":{"lat":42.6977082,"lng":23.3218675},"location_type":"APPROXIMATE","viewport":{"northeast":{"lat":42.7877752,"lng":23.4569049},"southwest":{"lat":42.6030891,"lng":23.1909885}}},"place_id":"ChIJ9Xsxy4KGqkARYF6_aRKgAAQ","types":["locality","political"]}],"status":"OK"},{"results":[{"address_components":[{"long_name":"Baltimore Road","short_name":"Baltimore Rd","types":["route"]},{"long_name":"Бирмингем","short_name":"Бирмингем","types":["locality","political"]},{"long_name":"Birmingham","short_name":"Birmingham","types":["postal_town"]},{"long_name":"West Midlands","short_name":"West Mids","types":["administrative_area_level_2","political"]},{"long_name":"Великобритания","short_name":"GB","types":["country","political"]},{"long_name":"B42 1QN","short_name":"B42 1QN","types":["postal_code"]}],"formatted_address":"Baltimore Rd, Birmingham, West Midlands B42 1QN, Великобритания","geometry":{"bounds":{"northeast":{"lat":52.5311324,"lng":-1.9205835},"southwest":{"lat":52.52620779999999,"lng":-1.926793}},"location":{"lat":52.5286437,"lng":-1.9240981},"location_type":"GEOMETRIC_CENTER","viewport":{"northeast":{"lat":52.5311324,"lng":-1.9205835},"southwest":{"lat":52.52620779999999,"lng":-1.926793}}},